samian_id,samian_label,samian_alt_labels,samian_lat,samian_lon,samian_earliest_year,samian_latest_year,samian_q_interval,samian_unc_start_years,samian_unc_end_years,pleiades_id,pleiades_uri,pleiades_label,pleiades_alt_labels,pleiades_lat,pleiades_lon,pleiades_earliest_year,pleiades_latest_year,pleiades_location_precision,pleiades_max_accuracy_m,distance_km,distance_eff_km,geo_score,geo_factor,string_score,string_mode,time_score,w_geo,w_str,w_time,geo_contrib,string_contrib,time_contrib,final_score,geo_rel,string_rel,time_rel,rank,confidence,samian_q_start,samian_q_end,samian_unc_interval_years
1,Aalen,,48.835827,10.085005,143,192,0.397,15,42,118537,https://pleiades.stoa.org/places/118537,Aalen,,48.835778000000005,10.087310500000001,-30.0,300.0,precise,10.0,0.16882917813835738,0.15882917813835737,0.9920899911696369,0.9920899911696369,1.0,label-label,0.397,0.25,0.65,0.1,0.24802249779240923,0.65,0.039700000000000006,0.9377224977924092,0.26449455822623963,0.6931688228982807,0.04233661887547962,1,high,,,
10,Bad Cannstatt,,48.8048,9.2145,73,102,0.287,24,27,118980,https://pleiades.stoa.org/places/118980,Stuttgart,,48.813333,9.210833,-30.0,300.0,precise,5.0,0.9860954120019928,0.9810954120019928,0.952128979594787,0.33324514285817547,0.15,label-label,0.287,0.25,0.65,0.1,0.08331128571454387,0.0975,0.0287,0.20951128571454386,0.3976458138300688,0.4653687254482432,0.136985460721688,1,low,,,
100,Gauting,,48.066669,11.366669,140,180,0.673,11,11,118609,https://pleiades.stoa.org/places/118609,Bratananium,Bratananium|Bratananto,48.066602,11.380178,-30.0,640.0,precise,10.0,1.0038527551791012,0.9938527551791012,0.951521841445038,0.3330326445057633,0.15,label-label,0.673,0.25,0.65,0.1,0.08325816112644083,0.0975,0.06730000000000001,0.24805816112644086,0.3356396771965195,0.3930529822411368,0.2713073405623437,1,low,,,
101,Geislingen,,48.28768,8.81241,75,101,0.191,30,31,118690,https://pleiades.stoa.org/places/118690,Geislingen,,48.274722,8.770833,-30.0,300.0,precise,5.0,3.397284961265944,3.3922849612659443,0.8439903247119703,0.8439903247119703,1.0,label-label,0.191,0.25,0.65,0.1,0.21099758117799258,0.65,0.019100000000000002,0.8800975811779926,0.23974339401725958,0.7385544670285178,0.021702138954222603,1,high,,,
102,Gloucester,,51.833328,-2.25,74,103,0.1,44,48,79394,https://pleiades.stoa.org/places/79394,Col. Glevum,Clavinio|Col. Glevum|Gloucester,51.86495646102243,-2.2463302159026965,,,precise,5.0,3.525951306241437,3.5209513062414373,0.8385780951596419,0.8385780951596419,0.97,label-alt,0.0,0.25,0.65,0.1,0.20964452378991047,0.6305,0.0,0.8401445237899104,0.2495338811996291,0.7504661188003708,0.0,1,high,,,
103,Gnotzheim,,49.057194,10.704499,65,90,0.5,0,0,118840,https://pleiades.stoa.org/places/118840,Mediana,Mediana,49.058521,10.709097,-30.0,640.0,precise,10.0,0.36609064147160675,0.35609064147160674,0.9823530321029906,0.3438235612360467,0.15,label-label,0.5,0.25,0.65,0.1,0.08595589030901167,0.0975,0.05,0.23345589030901165,0.36818899790978493,0.4176377810426846,0.2141732210475306,1,low,,,
104,Gomadingen,,48.4,9.4,113,150,0.188,41,46,118705,https://pleiades.stoa.org/places/118705,Gomadingen,,48.4020185,9.390308000000001,-30.0,300.0,precise,10.0,0.7498787210209045,0.7398787210209045,0.9636819790496651,0.9636819790496651,1.0,label-label,0.188,0.25,0.65,0.1,0.24092049476241628,0.65,0.0188,0.9097204947624163,0.26482913834466854,0.7145051735585607,0.02066568809677068,1,high,,,
105,Great Casterton,,52.67045,-0.522659,50,70,0.5,0,0,79487,https://pleiades.stoa.org/places/79487,Great Casterton,,52.670423,-0.522675,-30.0,640.0,precise,10.0,0.0031902257711405885,0.0,1.0,1.0,1.0,label-label,0.5,0.25,0.65,0.1,0.25,0.65,0.05,0.9500000000000001,0.2631578947368421,0.6842105263157895,0.05263157894736842,1,high,,,
106,Great Chesters,,54.993934,-2.462698,148,176,0.756,6,5,89095,https://pleiades.stoa.org/places/89095,(A)Esica,Aesica|Esica|Great Chesters,54.99486700806228,-2.4645070476248407,-30.0,640.0,precise,20.0,0.15517489895470815,0.13517489895470816,0.9932640439984366,0.9932640439984366,0.97,label-alt,0.756,0.25,0.65,0.1,0.24831601099960915,0.6305,0.0756,0.954416010999609,0.2601758647568527,0.6606133936705911,0.07921074157255621,1,high,,,
107,Greta Bridge,,54.513729,-1.869459,163,198,0.742,9,4,496316189,https://pleiades.stoa.org/places/496316189,Greta Bridge,Greta Bridge Roman Fort and Vicus,54.51404118476079,-1.871062901899717,,,precise,5.0,0.10919551176983269,0.10419551176983269,0.9948037717559312,0.9948037717559312,1.0,label-label,0.0,0.25,0.65,0.1,0.2487009429389828,0.65,0.0,0.8987009429389828,0.2767338177321444,0.7232661822678556,0.0,1,high,,,
108,Günzburg,,48.45,10.26667,66,93,0.523,12,13,118716,https://pleiades.stoa.org/places/118716,Guntia,Guntia,48.454426,10.281491,-30.0,640.0,precise,10.0,1.19872897687355,1.18872897687355,0.9422954156516848,0.3298033954780897,0.15,label-label,0.523,0.25,0.65,0.1,0.08245084886952242,0.0975,0.052300000000000006,0.23225084886952244,0.3550077395662953,0.4198047088937664,0.2251875515399383,1,low,,,
109,Hadrian Wall General,,55.012296,-2.33773,139,170,0.392,19,22,832240145,https://pleiades.stoa.org/places/832240145,Housesteads Mithraeum,,55.010302,-2.329043,-30.0,300.0,precise,5.0,0.5966208099052606,0.5916208099052606,0.9708521961102422,0.33979826863858476,0.15,label-label,0.392,0.25,0.65,0.1,0.08494956715964619,0.0975,0.039200000000000006,0.2216495671596462,0.3832606950162013,0.43988355695625725,0.1768557480275414,1,low,,,
11,Bad Nauheim,,50.36463,8.73859,72,97,0.52,12,12,118588,https://pleiades.stoa.org/places/118588,Bad Nauheim,,50.360605,8.735747,-30.0,300.0,precise,10.0,0.49089651551901403,0.480896515519014,0.9762419479742551,0.9762419479742551,1.0,label-label,0.52,0.25,0.65,0.1,0.24406048699356378,0.65,0.052000000000000005,0.9460604869935638,0.25797556324242105,0.687059663664425,0.054964773093154,1,high,,,
110,Haltern,,51.75,7.17,-10,14,0.496,5,16,109029,https://pleiades.stoa.org/places/109029,Haltern,Haltern am See,51.74008305466715,7.169241349973799,-30.0,300.0,precise,20.0,1.1039518371180845,1.0839518371180845,0.9472449201273919,0.9472449201273919,1.0,label-label,0.496,0.25,0.65,0.1,0.23681123003184798,0.65,0.049600000000000005,0.936411230031848,0.25289234306149216,0.6941394754288595,0.052968181509648354,1,high,,,
111,Haltonchesters,,55.010543,-2.004059,154,188,0.593,12,14,89201,https://pleiades.stoa.org/places/89201,Onnum,Halton Chesters|Hunno|Onnum,55.0103777063612,-2.0060014009029956,-30.0,640.0,precise,20.0,0.12520822070975998,0.10520822070975998,0.9947534006975659,0.34816369024414806,0.15,label-label,0.593,0.25,0.65,0.1,0.08704092256103702,0.0975,0.0593,0.243840922561037,0.35695781350749023,0.3998508493815032,0.24319133711100657,1,low,,,
112,Hanau-Salisberg,,50.133338,8.93,67,96,0.573,11,11,118726,https://pleiades.stoa.org/places/118726,Hanau,,50.132131,8.9052,-30.0,300.0,precise,10.0,1.7727646807327893,1.7627646807327892,0.9156342961498131,0.7782891517273411,0.65,label-label,0.573,0.25,0.65,0.1,0.19457228793183529,0.42250000000000004,0.0573,0.6743722879318353,0.28852355207025115,0.6265085436646913,0.08496790426505753,1,medium,,,
113,Handbridge,,53.183986,-2.88809,70,90,0.5,0,0,989985175,https://pleiades.stoa.org/places/989985175,Roman amphitheater at Deva,,53.1892360611332,-2.8869592857087607,-30.0,300.0,precise,20.0,0.5886222358392467,0.5686222358392466,0.9719692490597435,0.3401892371709102,0.15,label-label,0.5,0.25,0.65,0.1,0.08504730929272755,0.0975,0.05,0.23254730929272754,0.3657204615757179,0.4192695253991018,0.21501001302518039,1,low,,,
114,Hardknott,,54.402454,-3.204162,100,125,0.5,0,0,89243,https://pleiades.stoa.org/places/89243,‘Medibogdo’,Hardknott Roman Fort|Mediobogdo,54.40269160665815,-3.205357296581622,-30.0,640.0,precise,20.0,0.08175275144700204,0.06175275144700204,0.9969171242783219,0.6667714032881509,0.46883333333333327,label-alt,0.5,0.25,0.65,0.1,0.16669285082203772,0.30474166666666663,0.05,0.5214345174887044,0.31968127393033335,0.5844294085752927,0.09588931749437384,1,medium,,,
115,Haselburg,,49.633402,9.330439,136,166,0.651,11,6,346876399,https://pleiades.stoa.org/places/346876399,Haselburg,,49.773390101585576,8.944634907622186,,,precise,20.0,31.81325188340224,31.79325188340224,0.20399442903350215,0.20399442903350215,1.0,label-label,0.0,0.25,0.65,0.1,0.05099860725837554,0.65,0.0,0.7009986072583756,0.07275136744969075,0.9272486325503092,0.0,1,medium,,,
116,Hayton,,53.901339,-0.753669,58,88,0.689,11,4,89290,https://pleiades.stoa.org/places/89290,Shiptonthorpe,,53.876996,-0.705018,-30.0,640.0,precise,10.0,4.182309056280048,4.1723090562800484,0.8117073153988601,0.284097560389601,0.15,label-label,0.689,0.25,0.65,0.1,0.07102439009740025,0.0975,0.0689,0.23742439009740024,0.29914529871283835,0.41065705153544635,0.2901976497517154,1,low,,,
117,Heddernheim,,50.159333,8.646584,68,96,0.316,20,25,109205,https://pleiades.stoa.org/places/109205,Nida,Heddernheim|Nida,50.154109,8.637743,-30.0,300.0,precise,4.2,0.8568149990024851,0.8526149990024852,0.9582651642071293,0.9582651642071293,0.97,label-alt,0.316,0.25,0.65,0.1,0.23956629105178232,0.6305,0.0316,0.9016662910517822,0.2656928549167911,0.6992609197628202,0.03504622532038877,1,high,,,
118,Heddesdorf,,50.436637,7.469069,65,95,0.717,7,7,109035,https://pleiades.stoa.org/places/109035,Heddesdorf,,50.434933,7.467986,-30.0,300.0,precise,100.0,0.2044131031746535,0.1044131031746535,0.9947929487772951,0.9947929487772951,1.0,label-label,0.717,0.25,0.65,0.1,0.24869823719432377,0.65,0.0717,0.9703982371943237,0.2562847165854049,0.669828092309113,0.07388719110548216,1,high,,,
119,Heidelberg,,49.416671,8.699999,76,102,0.253,24,26,118731,https://pleiades.stoa.org/places/118731,Roman Heidelberg,Heidelberg,49.413509,8.681124,-30.0,300.0,precise,10.0,1.4099717557157647,1.3999717557157647,0.9323951366466814,0.9323951366466814,0.97,label-alt,0.253,0.25,0.65,0.1,0.23309878416167035,0.6305,0.025300000000000003,0.8888987841616703,0.26223321295405777,0.7093046038921417,0.028462183153800457,1,high,,,
12,Bad Wimpfen,Vicus Alisinensium,49.227218,9.159722,143,177,0.371,22,26,119024,https://pleiades.stoa.org/places/119024,Vicus Alisinensium,Vicus Alisinensium,49.231140499999995,9.168957500000001,-30.0,300.0,precise,10.0,0.7999883715512484,0.7899883715512483,0.9612705128946806,0.9612705128946806,0.97,alt-label,0.371,0.25,0.65,0.1,0.24031762822367014,0.6305,0.0371,0.9079176282236702,0.2646910036253494,0.6944462585593426,0.04086273781530787,1,high,,,
120,Heidenheim,,48.676111,10.154444,118,154,0.173,41,47,118569,https://pleiades.stoa.org/places/118569,Aquileia,Aquileia|Aqvileia,48.678383,10.151322,-30.0,640.0,precise,10.0,0.3411277082728698,0.3311277082728698,0.983579918266545,0.34425297139329075,0.15,label-label,0.173,0.25,0.65,0.1,0.08606324284832269,0.0975,0.0173,0.20086324284832272,0.42846685948066354,0.4854048885072761,0.08612825201206026,1,low,,,
121,Heilbronn-Böckingen,,49.133888,9.188611,76,109,0.589,9,14,118734,https://pleiades.stoa.org/places/118734,Heilbronn,,49.1441116,9.2107124,-30.0,300.0,precise,10.0,1.9691068400420544,1.9591068400420544,0.9066893937828534,0.7706859847154255,0.65,label-label,0.589,0.25,0.65,0.1,0.19267149617885637,0.42250000000000004,0.0589,0.6740714961788563,0.2858324336083979,0.6267881113428583,0.08737945504874402,1,medium,,,
122,Heldenbergen,,50.233333,8.866666,72,102,0.41,19,19,118873,https://pleiades.stoa.org/places/118873,Nidderau,,50.23681,8.870497,-30.0,300.0,precise,10.0,0.47299457169847337,0.46299457169847336,0.9771161705983884,0.34199065970943593,0.15,label-label,0.41,0.25,0.65,0.1,0.08549766492735898,0.0975,0.041,0.22399766492735898,0.3816899830410524,0.4352723946100895,0.18303762234885815,1,low,,,
123,Helsoven,,50.816667,5.266667,130,160,0.568,13,11,108806,https://pleiades.stoa.org/places/108806,Bergilers,,50.715456,5.328087,-30.0,640.0,precise,10.0,12.054688765350498,12.044688765350498,0.5475867193827004,0.19165535178394513,0.15,label-label,0.568,0.25,0.65,0.1,0.04791383794598628,0.0975,0.056799999999999996,0.20221383794598627,0.23694638523593348,0.4821628479552592,0.28089076680880737,1,low,,,
124,Heronbridge,,53.160568,-2.882517,75,100,0.5,0,0,79509,https://pleiades.stoa.org/places/79509,Heronbridge,,53.16896410037127,-2.8833185879432355,-30.0,640.0,precise,100.0,0.9351330653252752,0.8351330653252752,0.9591031467949677,0.9591031467949677,1.0,label-label,0.5,0.25,0.65,0.1,0.23977578669874192,0.65,0.05,0.939775786698742,0.25514148171558004,0.6916543384069613,0.05320417987745857,1,high,,,
125,Hesselbach,,49.575828,9.088055,145,170,0.5,0,0,118741,https://pleiades.stoa.org/places/118741,Hesselbach,,49.575377,9.0900895,-30.0,300.0,precise,10.0,0.15503030001182805,0.14503030001182804,0.9927747137965119,0.9927747137965119,1.0,label-label,0.5,0.25,0.65,0.1,0.24819367844912799,0.65,0.05,0.948193678449128,0.2617542007399535,0.6855139564557574,0.05273184280428903,1,high,,,
126,Hod Hill,,50.900001,-2.2,29,64,0.687,9,10,42178780,https://pleiades.stoa.org/places/42178780,Hod Hill,Hod Hill,50.895753275201464,-2.2065415396585237,43.0,410.0,precise,20.0,0.6584515743327715,0.6384515743327714,0.968581568004442,0.968581568004442,1.0,label-label,0.3943888888888889,0.25,0.65,0.1,0.2421453920011105,0.65,0.03943888888888889,0.9315842808899994,0.25992859365314125,0.6977361182812308,0.04233528806562784,1,high,,,
127,Hofheim,,50.083332,8.449999,53,80,0.426,16,17,109047,https://pleiades.stoa.org/places/109047,Hofheim,,50.080772,8.450889,-30.0,300.0,precise,4.2,0.2916568698762868,0.2874568698762868,0.9857299527405292,0.9857299527405292,1.0,label-label,0.426,0.25,0.65,0.1,0.2464324881851323,0.65,0.0426,0.9390324881851323,0.2624323346484127,0.6922018228104704,0.045365842541116974,1,high,,,
128,Holt,,53.079,-2.881,70,97,0.557,10,13,821460578,https://pleiades.stoa.org/places/821460578,Unnamed Roman Villa,,53.0853056,-2.888443,43.0,410.0,precise,20.0,0.8595061703322995,0.8395061703322995,0.9588934567820391,0.33561270987371367,0.15,label-label,0.557,0.25,0.65,0.1,0.08390317746842842,0.0975,0.055700000000000006,0.23710317746842843,0.3538677902349098,0.4112133841520646,0.23491882561302563,1,low,,,
129,Holzhausen,,50.214881,7.947468,179,234,0.663,14,18,109050,https://pleiades.stoa.org/places/109050,Holzhausen,,50.2149683,7.9480079,-30.0,300.0,precise,20.0,0.03962395340988967,0.019623953409889667,0.9990192835465372,0.9990192835465372,1.0,label-label,0.663,0.25,0.65,0.1,0.2497548208866343,0.65,0.06630000000000001,0.9660548208866344,0.2585306915164629,0.6728396628707233,0.06862964561281377,1,high,,,
13,Baden-Baden,Aquae,48.7598,8.239792,68,94,0.545,9,13,108748,https://pleiades.stoa.org/places/108748,Aquae,Aquae,48.759799,8.239789,-30.0,300.0,precise,10.0,0.0002464195883913214,0.0,1.0,1.0,0.97,alt-label,0.545,0.25,0.65,0.1,0.25,0.6305,0.05450000000000001,0.9349999999999999,0.26737967914438504,0.674331550802139,0.05828877005347595,1,high,,,
130,Housesteads,,55.016666,-2.333333,161,195,0.529,15,16,89311,https://pleiades.stoa.org/places/89311,*Vercovicium,Housesteads|Housesteads Roman fort|Vercouicium,55.01331059875913,-2.3302702102961725,,,precise,20.0,0.42111327200548104,0.401113272005481,0.9801441134381287,0.9801441134381287,0.97,label-alt,0.0,0.25,0.65,0.1,0.24503602835953217,0.6305,0.0,0.8755360283595321,0.27986972599933946,0.7201302740006605,0.0,1,high,,,
131,Hüfingen,,47.916671,8.483333,56,82,0.5,15,10,187326,https://pleiades.stoa.org/places/187326,*Brigobannis,Brigobannis,47.919511107105414,8.480043796098752,,,precise,20.0,0.3997704229094601,0.37977042290946006,0.9811906251226125,0.34341671879291435,0.15,label-label,0.0,0.25,0.65,0.1,0.08585417969822859,0.0975,0.0,0.1833541796982286,0.46824228299311593,0.531757717006884,0.0,1,low,,,
132,Ilkley,,53.916667,-1.816666,131,161,0.13,41,45,89205,https://pleiades.stoa.org/places/89205,Ilkley (Verbeia?),,53.92665545004785,-1.824171675856724,,,precise,5.0,1.2145523822008335,1.2095523822008336,0.9413148362464193,0.8001176108094565,0.65,label-label,0.0,0.25,0.65,0.1,0.20002940270236413,0.42250000000000004,0.0,0.6225294027023642,0.3213171969613773,0.6786828030386226,0.0,1,medium,,,
133,Inchtuthil,,56.541347,-3.422952,64,94,0.692,5,10,89206,https://pleiades.stoa.org/places/89206,Victoria?,,56.5334205,-3.4115965,-30.0,300.0,precise,10000.0,1.1232012574573869,0.0,1.0,0.35,0.15,label-label,0.692,0.25,0.65,0.1,0.0875,0.0975,0.0692,0.2542,0.34421715184893786,0.38355625491738793,0.27222659323367426,1,low,,,
134,Inveravon,,52.867542,0.491559,155,185,0.5,0,0,709260452,https://pleiades.stoa.org/places/709260452,Thornham Roman Signal Station,,52.95192,0.568174,43.0,410.0,precise,5.0,10.696996162229453,10.691996162229453,0.5859037171488334,0.20506630100209167,0.15,label-label,0.5,0.25,0.65,0.1,0.05126657525052292,0.0975,0.05,0.19876657525052294,0.2579235225334398,0.49052512917281094,0.2515513482937492,1,low,,,
135,Inveresk,,55.936565,-3.056639,133,164,0.618,9,12,89207,https://pleiades.stoa.org/places/89207,Inveresk,,55.93716209466626,-3.054622908248247,,,precise,5.0,0.1420371609457881,0.1370371609457881,0.9931715624103148,0.9931715624103148,1.0,label-label,0.0,0.25,0.65,0.1,0.2482928906025787,0.65,0.0,0.8982928906025787,0.2764052718217805,0.7235947281782196,0.0,1,high,,,
136,Iža,,47.75,18.233333,156,186,0.72,5,8,197155,https://pleiades.stoa.org/places/197155,‘Azao’,Azao,47.727941,18.257768,-30.0,640.0,precise,10.0,3.0586433987434574,3.0486433987434576,0.8586171320352365,0.1717234264070473,0.0,alt-alt,0.72,0.25,0.65,0.1,0.042930856601761824,0.0,0.072,0.11493085660176182,0.3735363841454543,0.0,0.6264636158545457,1,low,,,
137,Jagsthausen,,49.310942,9.469169,151,189,0.484,14,24,118769,https://pleiades.stoa.org/places/118769,Jagsthausen,,49.3107445,9.469357500000001,-30.0,300.0,precise,10.0,0.025865482130369738,0.015865482130369736,0.999207040452203,0.999207040452203,1.0,label-label,0.484,0.25,0.65,0.1,0.24980176011305075,0.65,0.0484,0.9482017601130508,0.26344789750576686,0.6855081137188596,0.05104398877537354,1,high,,,
138,Kapersburg,,50.313041,8.635664,40,65,0.5,0,0,109074,https://pleiades.stoa.org/places/109074,Kapersburg,Kapersburg|Kastell Kapersburg,50.31301504808457,8.635684199754634,,,precise,20.0,0.0032225418627441745,0.0,1.0,1.0,1.0,label-label,0.0,0.25,0.65,0.1,0.25,0.65,0.0,0.9,0.2777777777777778,0.7222222222222222,0.0,1,high,,,
139,Kempten,,47.72674,10.31389,153,189,0.666,8,12,187335,https://pleiades.stoa.org/places/187335,Cambodunum (Raetia),Cambodunum|Cambodvno|Kempten,47.727498,10.326578,-330.0,640.0,precise,10.0,0.9527566083788414,0.9427566083788413,0.9539559043867437,0.9539559043867437,0.97,label-alt,0.666,0.25,0.65,0.1,0.23848897609668593,0.6305,0.0666,0.9355889760966859,0.25490785183432935,0.6739070426315525,0.07118510553411801,1,high,,,
14,Bagendon,,51.753227,-1.976233,15,35,0.5,0,0,79319,https://pleiades.stoa.org/places/79319,Barton Farm,,51.723317,-2.028822,-30.0,640.0,precise,10000.0,4.916723145987709,0.0,1.0,0.35,0.15,label-label,0.5,0.25,0.65,0.1,0.0875,0.0975,0.05,0.235,0.3723404255319149,0.41489361702127664,0.21276595744680854,1,low,,,
140,Komárom,,47.733333,18.166666,156,194,0.471,14,25,197180,https://pleiades.stoa.org/places/197180,Brigetio,Brigetio,47.735239,18.169507,-30.0,640.0,precise,10.0,0.30010068972609283,0.2901006897260928,0.9855996567319182,0.3449598798561713,0.15,label-label,0.471,0.25,0.65,0.1,0.08623996996404283,0.0975,0.0471,0.23083996996404285,0.3735920169175041,0.4223705280120563,0.20403745507043952,1,low,,,
141,Köngen,Grinario,48.683334,9.366666,147,187,0.308,30,37,118706,https://pleiades.stoa.org/places/118706,*Grinario,Grinario|Grinarione,48.67726312416167,9.360161772911495,-30.0,300.0,precise,20.0,0.8268765359533831,0.806876535953383,0.9604591507804755,0.9604591507804755,0.97,alt-label,0.308,0.25,0.65,0.1,0.24011478769511888,0.6305,0.0308,0.9014147876951188,0.266375469953275,0.6994560202547409,0.03416850979198417,1,high,,,
142,Kösching,,48.816665,11.5,50,80,0.427,21,14,118697,https://pleiades.stoa.org/places/118697,Germanicum,Germanico|Germanicum,48.810891,11.499781,-30.0,300.0,precise,10.0,0.642240620015531,0.6322406200155309,0.9688824055077938,0.33910884192772783,0.15,label-label,0.427,0.25,0.65,0.1,0.08477721048193196,0.0975,0.0427,0.22497721048193198,0.3768257695982965,0.43337722870303913,0.1897970016986643,1,low,,,
143,Künzing,,48.666671,13.08333,140,172,0.051,64,71,118919,https://pleiades.stoa.org/places/118919,Quintana,Castra Quintana|Kastell Kunzing|Kastell Künzing|Kunzing|Künzing|Quintana|Quintanis,48.668964,13.079326,-30.0,640.0,precise,10.0,0.38918851751846306,0.37918851751846305,0.9812191735436402,0.9812191735436402,0.97,label-alt,0.051,0.25,0.65,0.1,0.24530479338591005,0.6305,0.0051,0.88090479338591,0.2784691322237431,0.7157413658479075,0.005789501928349451,1,high,,,
144,La Graufesenque,Condatomagus,44.099998,3.083333,32,60,0.555,12,11,246410,https://pleiades.stoa.org/places/246410,La Graufesenque,La Graufesenque,44.096622,3.092825,-30.0,640.0,precise,4.2,0.8458437222542805,0.8416437222542805,0.958790978030902,0.958790978030902,1.0,label-label,0.555,0.25,0.65,0.1,0.2396977445077255,0.65,0.05550000000000001,0.9451977445077255,0.25359534118711213,0.6876867869998258,0.05871787181306205,1,high,,,
145,Ladenburg,,49.474998,8.606944,55,78,0.456,14,11,118813,https://pleiades.stoa.org/places/118813,Lopodunum,Ladenburg|Lopodunum,49.47416,8.614162,-30.0,640.0,precise,10.0,0.5297807642945231,0.5197807642945231,0.974345770119325,0.974345770119325,0.97,label-alt,0.456,0.25,0.65,0.1,0.24358644252983125,0.6305,0.0456,0.9196864425298311,0.2648581421509106,0.685559741715502,0.04958211613358746,1,high,,,
146,Langenhain,,50.365103,8.644794,200,243,0.889,0,5,109100,https://pleiades.stoa.org/places/109100,Langenhain,,50.365244,8.636999,-30.0,300.0,precise,10.0,0.5531253140897466,0.5431253140897466,0.97320915042783,0.97320915042783,1.0,label-label,0.889,0.25,0.65,0.1,0.2433022876069575,0.65,0.0889,0.9822022876069575,0.24771097632010244,0.6617781369494294,0.09051088673046813,1,high,,,
147,Lincoln,Colonia Lindum,53.233333,-0.533333,40,70,0.717,7,7,79395,https://pleiades.stoa.org/places/79395,Col. Lindum,Col. Lindum,53.2348205,-0.5384420000000001,-30.0,640.0,precise,10.0,0.37812680043102276,0.36812680043102275,0.981762022095655,0.6566351657783105,0.46883333333333327,alt-label,0.717,0.25,0.65,0.1,0.16415879144457762,0.30474166666666663,0.0717,0.5406004581112442,0.3036601042073057,0.5637095975304505,0.13263029826224387,1,medium,,,
148,Little Chester,Derventio,52.933414,-1.471779,45,70,0.5,0,0,827577267,https://pleiades.stoa.org/places/827577267,Strutt's Park Roman fort,,52.9335353,-1.4823226,43.0,410.0,precise,20.0,0.706781175918126,0.6867811759181259,0.9662438356196573,0.33818534246688003,0.15,label-label,0.5,0.25,0.65,0.1,0.08454633561672001,0.0975,0.05,0.23204633561672,0.36435109131121335,0.42017470235360477,0.21547420633518194,1,low,,,
149,London,Londinium,51.51279,-0.09184,123,155,0.323,23,28,79574,https://pleiades.stoa.org/places/79574,Londinium/Augusta,Augusta|Londinium|London|Londra,51.513335,-0.088949,-30.0,640.0,precise,10.0,0.20903645624086725,0.19903645624086724,0.9900975327150868,0.9900975327150868,0.97,label-alt,0.323,0.25,0.65,0.1,0.2475243831787717,0.6305,0.0323,0.9103243831787716,0.27190789102499774,0.6926102515219357,0.03548185745306665,1,high,,,
15,Baginton,,52.366664,-1.483333,45,74,0.625,10,9,79650,https://pleiades.stoa.org/places/79650,Radford Semele,,52.277491,-1.495429,-30.0,640.0,precise,10.0,9.949620817568883,9.939620817568883,0.6083645177586816,0.21292758121553856,0.15,label-label,0.625,0.25,0.65,0.1,0.05323189530388464,0.0975,0.0625,0.21323189530388464,0.24964321227845349,0.4572486675178174,0.2931081202037291,1,low,,,
150,London,Londinium,51.51279,-0.09184,99,129,0.118,44,47,79574,https://pleiades.stoa.org/places/79574,Londinium/Augusta,Augusta|Londinium|London|Londra,51.513335,-0.088949,-30.0,640.0,precise,10.0,0.20903645624086725,0.19903645624086724,0.9900975327150868,0.9900975327150868,0.97,label-alt,0.118,0.25,0.65,0.1,0.2475243831787717,0.6305,0.0118,0.8898243831787717,0.2781721740356517,0.7085667822988037,0.013261043665544621,1,high,,,
151,Lorch,,48.798115,9.688578,165,200,0.575,9,17,118814,https://pleiades.stoa.org/places/118814,Lorch,,48.798141,9.6896755,-30.0,300.0,precise,10.0,0.08043919348305945,0.07043919348305945,0.9964842351510447,0.9964842351510447,1.0,label-label,0.575,0.25,0.65,0.1,0.24912105878776117,0.65,0.057499999999999996,0.9566210587877612,0.2604177030175874,0.6794749018212979,0.0601073951611148,1,high,,,
152,Loudoun Hill,,55.607688,-4.213332,68,88,0.779,4,4,264399135,https://pleiades.stoa.org/places/264399135,Loudoun Hill,,55.60925,-4.21613,43.0,410.0,precise,10.0,0.24708395648147938,0.23708395648147937,0.988215786370497,0.988215786370497,1.0,label-label,0.779,0.25,0.65,0.1,0.24705394659262425,0.65,0.07790000000000001,0.9749539465926242,0.2534006323642829,0.6666981576634375,0.07990120997227967,1,high,,,
153,Loughor,,51.666671,-4.05,56,82,0.662,9,6,79561,https://pleiades.stoa.org/places/79561,‘Leucaro’,Leucaro|Loughor,51.66223257233418,-4.078313978342256,,,precise,20.0,2.0142283700790444,1.9942283700790444,0.9050985750524653,0.9050985750524653,0.97,label-alt,0.0,0.25,0.65,0.1,0.22627464376311632,0.6305,0.0,0.8567746437631163,0.26410053730030486,0.7358994626996951,0.0,1,high,,,
154,Mainhardt,,49.081095,9.556183,146,176,0.615,10,10,118829,https://pleiades.stoa.org/places/118829,Mainhardt,,49.078429799999995,9.55580365,-30.0,300.0,precise,10.0,0.2976422907354865,0.28764229073548647,0.9857208140381531,0.9857208140381531,1.0,label-label,0.615,0.25,0.65,0.1,0.2464302035095383,0.65,0.0615,0.9579302035095383,0.25725277541797914,0.678546304958979,0.06420091962304186,1,high,,,
155,Malton,,54.133335,-0.8,125,158,0.145,44,47,89166,https://pleiades.stoa.org/places/89166,Derventio,Derventio,54.1344542,-0.78916895,-30.0,640.0,precise,20.0,0.7165162448213463,0.6965162448213463,0.9657736275507864,0.3380207696427752,0.15,label-label,0.145,0.25,0.65,0.1,0.0845051924106938,0.0975,0.014499999999999999,0.1965051924106938,0.43004050617695044,0.4961700950691726,0.07378939875387694,1,low,,,
156,Manchester,,53.48095,-2.23743,81,108,0.16,34,37,79590,https://pleiades.stoa.org/places/79590,‘Mamucio’,Mamucio,53.47529334543511,-2.254277076204691,-30.0,640.0,precise,20.0,1.2800593562362401,1.26005935623624,0.9389406870857363,0.3286292404800077,0.15,label-label,0.16,0.25,0.65,0.1,0.08215731012000192,0.0975,0.016,0.19565731012000193,0.4199041174061558,0.49832025156739923,0.081775631026445,1,low,,,
157,Marköbel,,50.2167,8.9833,72,100,0.713,8,6,118834,https://pleiades.stoa.org/places/118834,Marköbel,,50.222246999999996,8.9847505,-30.0,300.0,precise,10.0,0.6253730254644007,0.6153730254644006,0.9696998859617512,0.9696998859617512,1.0,label-label,0.713,0.25,0.65,0.1,0.2424249714904378,0.65,0.0713,0.9637249714904378,0.2515499532148869,0.6744662836688251,0.07398376311628804,1,high,,,
158,Miltenberg,,49.703891,9.264444,144,180,0.448,14,25,118846,https://pleiades.stoa.org/places/118846,Miltenberg-Ost,,49.703238,9.257068,-30.0,300.0,precise,10.0,0.5353884642226322,0.5253884642226322,0.974072616479953,0.8279617240079602,0.65,label-label,0.448,0.25,0.65,0.1,0.20699043100199005,0.42250000000000004,0.044800000000000006,0.6742904310019902,0.306975186781761,0.6265846000100705,0.06644021320816842,1,medium,,,
159,Mumrills,,55.991607,-3.747586,140,171,0.693,8,8,89246,https://pleiades.stoa.org/places/89246,Mumrills,,55.996389,-3.736279,-30.0,300.0,precise,100.0,0.8815860391323267,0.7815860391323267,0.9616744434574034,0.9616744434574034,1.0,label-label,0.693,0.25,0.65,0.1,0.24041861086435085,0.65,0.0693,0.9597186108643508,0.25050948074021695,0.6772818539119408,0.0722086653478423,1,high,,,
16,Bainbridge,,54.299999,-2.099999,148,185,0.32,28,32,89317,https://pleiades.stoa.org/places/89317,Virosidum,Bainbridge|Brough by Bainbridge|Brough-by-Bainbridge|Virosidum,54.306875123717795,-2.097911343621413,,,precise,5.0,0.7764962126817503,0.7714962126817503,0.9621597222684076,0.9621597222684076,0.97,label-alt,0.0,0.25,0.65,0.1,0.2405399305671019,0.6305,0.0,0.8710399305671018,0.27615258741409854,0.7238474125859015,0.0,1,high,,,
160,Munningen,,48.916667,10.6,58,85,0.458,15,15,118815,https://pleiades.stoa.org/places/118815,Losodica,Losodica,48.921544,10.602346,-30.0,300.0,precise,10.0,0.5687462465050585,0.5587462465050584,0.9724493254775717,0.34035726391715004,0.15,label-label,0.458,0.25,0.65,0.1,0.08508931597928751,0.0975,0.04580000000000001,0.22838931597928752,0.37256259389561025,0.4269026315085694,0.2005347745958203,1,low,,,
161,Murrhardt,,48.977053,9.582358,144,182,0.502,13,23,118854,https://pleiades.stoa.org/places/118854,Murrhardt,,48.978564,9.581847,-30.0,300.0,precise,10.0,0.1721050981040102,0.1621050981040102,0.9919275041068757,0.9919275041068757,1.0,label-label,0.502,0.25,0.65,0.1,0.24798187602671892,0.65,0.0502,0.948181876026719,0.2615340814843111,0.6855224893390427,0.05294342917664607,1,high,,,
162,Narbonne,Colonia Narbo Martius,43.18333,3.0,39,66,0.562,12,10,246347,https://pleiades.stoa.org/places/246347,Col. Narbo Martius,Col. Iulia Paterna Claudia|Col. Narbo Martius|Narbon|Narbonne|Nárbōn|colonia Narbo Martius|Νάρβων (ἡ),43.1836165,3.004203,-750.0,640.0,precise,10.0,0.3422637292638881,0.3322637292638881,0.9835240514815313,0.9835240514815313,0.97,label-alt,0.562,0.25,0.65,0.1,0.24588101287038283,0.6305,0.05620000000000001,0.9325810128703829,0.26365646466850945,0.6760806742777119,0.060262861053778614,1,high,,,
163,Neckarburken,,49.378059,9.169166,95,122,0.072,51,49,118862,https://pleiades.stoa.org/places/118862,Neckarburken,,49.3767085,9.1702634,-30.0,300.0,precise,20.0,0.16989007280360882,0.14989007280360883,0.9925335101254509,0.9925335101254509,1.0,label-label,0.072,0.25,0.65,0.1,0.24813337753136272,0.65,0.0072,0.9053333775313627,0.2740795641578639,0.7179675643599948,0.00795287148214148,1,high,,,
164,Nether Denton,,54.972457,-2.640561,85,115,0.221,28,35,24547397,https://pleiades.stoa.org/places/24547397,Nether Denton Roman fort,,54.974142989606236,-2.6336520253867097,,,precise,20.0,0.4791391932595311,0.45913919325953106,0.9773045463851271,0.8307088644273581,0.65,label-label,0.0,0.25,0.65,0.1,0.20767721610683954,0.42250000000000004,0.0,0.6301772161068395,0.3295536728380072,0.6704463271619929,0.0,1,medium,,,
165,Neuss,,51.19807,6.68504,55,83,0.168,35,35,109215,https://pleiades.stoa.org/places/109215,Novaesium,Neuss|Novaesium,51.183889,6.721944,-30.0,640.0,precise,10.0,3.01672515311224,3.00672515311224,0.8604186054330708,0.8604186054330708,0.97,label-alt,0.168,0.25,0.65,0.1,0.2151046513582677,0.6305,0.016800000000000002,0.8624046513582677,0.24942427086806962,0.7310953147191134,0.01948041441281698,1,high,,,
166,Newcastle,Pons Aelius,54.988056,-1.619444,145,175,0.5,0,0,89275,https://pleiades.stoa.org/places/89275,Pons Aeli,Newcastle upon Tyne|Pons Aeli|Pons Aelii|Pons Aelius,54.968831,-1.610077,-30.0,640.0,precise,5.0,2.2197207714469673,2.2147207714469674,0.8951750094193154,0.8951750094193154,0.94,alt-alt,0.5,0.25,0.65,0.1,0.22379375235482885,0.611,0.05,0.8847937523548288,0.25293324207954043,0.6905564131458408,0.056510344774618734,1,high,,,
167,Newcastle,Pons Aelius,54.988056,-1.619444,139,170,0.12,46,48,89275,https://pleiades.stoa.org/places/89275,Pons Aeli,Newcastle upon Tyne|Pons Aeli|Pons Aelii|Pons Aelius,54.968831,-1.610077,-30.0,640.0,precise,5.0,2.2197207714469673,2.2147207714469674,0.8951750094193154,0.8951750094193154,0.94,alt-alt,0.12,0.25,0.65,0.1,0.22379375235482885,0.611,0.012,0.8467937523548288,0.26428366025668715,0.7215452384962507,0.014171101247062208,1,high,,,
168,Newstead,,55.598,-2.6919,118,148,0.177,36,38,89304,https://pleiades.stoa.org/places/89304,Trimontium,Newstead|Trimontium,55.59984202419065,-2.691217786987885,,,precise,20.0,0.2092600393223224,0.1892600393223224,0.9905816313376887,0.9905816313376887,0.97,label-alt,0.0,0.25,0.65,0.1,0.24764540783442218,0.6305,0.0,0.8781454078344222,0.28200956883113,0.71799043116887,0.0,1,high,,,
169,Niederbieber,,50.467026,7.471947,178,232,0.617,18,18,109208,https://pleiades.stoa.org/places/109208,Niederbieber,,50.467025,7.471947,-30.0,300.0,precise,10.0,0.00011119507996587456,0.0,1.0,1.0,1.0,label-label,0.617,0.25,0.65,0.1,0.25,0.65,0.061700000000000005,0.9617,0.2599563273370074,0.6758864510762193,0.06415722158677342,1,high,,,
17,Balmuildy,,55.917377,-4.270652,140,173,0.738,7,7,89108,https://pleiades.stoa.org/places/89108,Balmuildy Roman Fort,,55.917308,-4.271934,43.0,410.0,precise,2000.0,0.08025213162687551,0.0,1.0,0.6833333333333333,0.4833333333333333,label-label,0.738,0.25,0.65,0.1,0.17083333333333334,0.31416666666666665,0.0738,0.5588,0.30571462658076837,0.5622166547363397,0.13206871868289194,1,medium,,,
170,Nijmegen,Ulpia Noviomagus,51.833328,5.866666,62,90,0.415,17,17,98921,https://pleiades.stoa.org/places/98921,Batavodurum/(Ulpia) Noviomagus,Batavi|Batavodurum|Nijmegen|Noviomagus|Ulpia Noviomagus,51.84167,5.858672,-30.0,640.0,precise,10.0,1.078002163110345,1.068002163110345,0.9480006338060868,0.9480006338060868,0.97,label-alt,0.415,0.25,0.65,0.1,0.2370001584515217,0.6305,0.0415,0.9090001584515216,0.2607262014731115,0.6936192410285762,0.04565455749831232,1,high,,,
171,Northwich,,53.26667,-2.5,65,90,0.5,0,0,79400,https://pleiades.stoa.org/places/79400,Condate,Condate,53.259423,-2.517363,-30.0,640.0,precise,100.0,1.4081814865035376,1.3081814865035375,0.9366842115317667,0.32783947403611835,0.15,label-label,0.5,0.25,0.65,0.1,0.08195986850902959,0.0975,0.05,0.2294598685090296,0.35718606936186026,0.42491090330317705,0.2179030273349626,1,low,,,
172,Oberflorstadt,,50.333332,8.866666,73,106,0.703,8,9,118887,https://pleiades.stoa.org/places/118887,Oberflorstadt,,50.3250575,8.876639,-30.0,300.0,precise,10.0,1.1609103818542383,1.1509103818542383,0.944078915792652,0.944078915792652,1.0,label-label,0.703,0.25,0.65,0.1,0.236019728948163,0.65,0.0703,0.9563197289481631,0.24680002075012755,0.6796889997395766,0.07351097951029575,1,high,,,
173,Oberstimm,,48.71667,11.449999,60,87,0.503,12,14,118891,https://pleiades.stoa.org/places/118891,Oberstimm,,48.712913,11.455793,-30.0,300.0,precise,10.0,0.596007815735048,0.586007815735048,0.9711247037338914,0.9711247037338914,1.0,label-label,0.503,0.25,0.65,0.1,0.24278117593347284,0.65,0.050300000000000004,0.9430811759334728,0.2574340174833467,0.6892301708351058,0.053335811681547426,1,high,,,
174,Oberwinterthur,,47.299999,8.439999,47,72,0.623,10,8,187624,https://pleiades.stoa.org/places/187624,Vitudurum,Oberwinterthur|Vitudurum,47.4985705,8.731863,-30.0,640.0,precise,10.0,31.14648284787786,31.136482847877858,0.21080449428726333,0.21080449428726333,0.97,label-alt,0.623,0.25,0.65,0.1,0.05270112357181583,0.6305,0.0623,0.7455011235718159,0.07069221213150728,0.8457398386996025,0.08356794916889015,1,medium,,,
175,Öhringen,,49.201698,9.503899,147,181,0.43,19,22,119026,https://pleiades.stoa.org/places/119026,*Vicus Aurelianus,Vicus Aurelianus,49.203802499999995,9.5004755,-30.0,300.0,precise,10.0,0.34150591669245783,0.3315059166924578,0.9835613185320886,0.344246461486231,0.15,label-label,0.43,0.25,0.65,0.1,0.08606161537155775,0.0975,0.043000000000000003,0.22656161537155775,0.379859647586013,0.43034650790294476,0.1897938445110423,1,low,,,
176,Okarben,,50.25,8.75,72,99,0.504,12,14,118777,https://pleiades.stoa.org/places/118777,Karben,,50.240281499999995,8.763929999999998,-30.0,640.0,precise,10.0,1.4659498846339107,1.4559498846339107,0.9297890986181881,0.32542618451636585,0.15,label-label,0.504,0.25,0.65,0.1,0.08135654612909146,0.0975,0.0504,0.22925654612909147,0.3548712021652835,0.4252877470512837,0.2198410507834328,1,low,,,
177,Old Carlisle,,54.807262,-3.151907,160,210,0.5,0,0,89236,https://pleiades.stoa.org/places/89236,‘Maglone’,Maglona|Maglone|Old Carlisle,54.807411499930524,-3.153217550609552,-30.0,640.0,precise,5.0,0.08561575440621913,0.08061575440621913,0.9959773250006331,0.9959773250006331,0.97,label-alt,0.5,0.25,0.65,0.1,0.24899433125015827,0.6305,0.05,0.9294943312501582,0.2678814952160752,0.6783258152333058,0.05379268955061902,1,high,,,
178,Old Kilpatrick,,55.916667,-4.449999,147,171,0.719,4,7,89259,https://pleiades.stoa.org/places/89259,Old Kilpatrick,,55.924016,-4.456676,-30.0,300.0,precise,10.0,0.916978910695157,0.906978910695157,0.9556639489763593,0.9556639489763593,1.0,label-label,0.719,0.25,0.65,0.1,0.23891598724408983,0.65,0.0719,0.9608159872440898,0.24865946280658066,0.6765083102586544,0.074832226934765,1,high,,,
179,Old Penrith,,54.734279,-2.792124,114,148,0.152,44,47,89318,https://pleiades.stoa.org/places/89318,Voreda,Old Penrith|Voreda,54.73848843605398,-2.7883347544612236,43.0,410.0,precise,20.0,0.527506652588306,0.507506652588306,0.9749439150841506,0.9749439150841506,0.97,label-alt,0.152,0.25,0.65,0.1,0.24373597877103764,0.6305,0.0152,0.8894359787710376,0.27403431454146426,0.7088762036264624,0.01708948183207332,1,high,,,
18,Bar Hill,,55.958923,-4.07087,136,168,0.758,6,7,151622036,https://pleiades.stoa.org/places/151622036,Bar Hill Fort Bathhouse,Fort Bathhouse,55.9591362,-4.0725576,43.0,410.0,precise,20.0,0.10768721195422848,0.08768721195422848,0.9956252366801153,0.846281451178098,0.65,label-label,0.758,0.25,0.65,0.1,0.2115703627945245,0.42250000000000004,0.0758,0.7098703627945245,0.29804084503773626,0.5951790948656561,0.10678006009660765,1,medium,,,
180,Osijek,,45.55111,18.69389,149,181,0.441,18,20,197389,https://pleiades.stoa.org/places/197389,Mursa,Mursa|Mursa maior|Mvrsa maior|Osijek,45.560018,18.675749,-30.0,640.0,precise,10.0,1.7251713344899353,1.7151713344899353,0.9178157957464258,0.9178157957464258,0.97,label-alt,0.441,0.25,0.65,0.1,0.22945394893660645,0.6305,0.0441,0.9040539489366064,0.25380559335701336,0.6974141319128417,0.048780274730144846,1,high,,,
181,Osterburken,,49.430561,9.423889,149,185,0.479,17,21,118898,https://pleiades.stoa.org/places/118898,Osterburken,,49.42553033217792,9.427510520716453,-30.0,300.0,precise,20.0,0.6176658498446739,0.5976658498446739,0.9705587984374544,0.9705587984374544,1.0,label-label,0.479,0.25,0.65,0.1,0.2426396996093636,0.65,0.0479,0.9405396996093636,0.25797922162152187,0.69109257192436,0.05092820645411822,1,high,,,
182,Papcastle,,54.670497,-3.380827,170,200,0.5,0,0,89165,https://pleiades.stoa.org/places/89165,Derventio,Deruentio|Derventio|Papcastle,54.670589,-3.38215,-30.0,640.0,precise,5.0,0.08568385898262126,0.08068385898262126,0.9959739334757163,0.9959739334757163,0.97,label-alt,0.5,0.25,0.65,0.1,0.24899348336892907,0.6305,0.05,0.929493483368929,0.2678808273797225,0.6783264340001248,0.05379273862015265,1,high,,,
183,Pen Llystyn,,52.9837,-4.2697,60,90,0.5,0,0,842094503,https://pleiades.stoa.org/places/842094503,Pen Llystyn,,52.9804844,-4.2642154,-30.0,300.0,precise,20.0,0.5125096817840215,0.49250968178402144,0.975675249516428,0.975675249516428,1.0,label-label,0.5,0.25,0.65,0.1,0.243918812379107,0.65,0.05,0.9439188123791071,0.2584107967551998,0.6886185458701716,0.05297065737462858,1,high,,,
184,Penydarren,,51.7581,-3.3705,70,95,0.5,0,0,100271079,https://pleiades.stoa.org/places/100271079,Penydarren Roman fort,,51.7517844,-3.3778152,43.0,410.0,precise,20.0,0.8641246398471352,0.8441246398471351,0.9586720513369743,0.6550925684135991,0.4833333333333333,label-label,0.5,0.25,0.65,0.1,0.16377314210339977,0.31416666666666665,0.05,0.5279398087700664,0.3102117691881195,0.5950804645676864,0.09470776624419414,1,medium,,,
185,Pforzheim,,48.883335,8.699999,90,125,0.5,0,0,118912,https://pleiades.stoa.org/places/118912,*Portus,Portus,48.893378,8.70439,-30.0,300.0,precise,10.0,1.1619636547139587,1.1519636547139587,0.9440291984668393,0.3304102194633937,0.15,label-label,0.5,0.25,0.65,0.1,0.08260255486584843,0.0975,0.05,0.2301025548658484,0.3589814763856332,0.42372410882983574,0.21729441478453115,1,low,,,
186,Pfünz,,48.883931,11.263661,71,106,0.174,42,45,119020,https://pleiades.stoa.org/places/119020,Vetoniana,Vetoniana,48.884011934232454,11.263551301698003,-30.0,300.0,precise,20.0,0.012055291794674895,0.0,1.0,0.35,0.15,label-label,0.174,0.25,0.65,0.1,0.0875,0.0975,0.0174,0.2024,0.4323122529644269,0.48171936758893286,0.0859683794466403,1,low,,,
187,Piercebridge,,54.533332,-1.683333,158,201,0.727,5,13,89274,https://pleiades.stoa.org/places/89274,Piercebridge,,54.53656131659249,-1.6767892769362074,-30.0,640.0,precise,20.0,0.5542323214694366,0.5342323214694366,0.9736419837399235,0.9736419837399235,1.0,label-label,0.727,0.25,0.65,0.1,0.24341049593498087,0.65,0.0727,0.9661104959349809,0.25194891987941137,0.6728008884438669,0.07525019167672173,1,high,,,
188,Pompeii,,40.75,14.483329,55,83,0.557,13,10,433032,,Pompeii,Colonia Cornelia Veneria Pompeianorum|Pompei|Pompeia|Pompeii|Πομπηία,40.74941,14.485429,-750.0,300.0,precise,10.0,0.18867292764490107,0.17867292764490106,0.9911061400690823,0.9911061400690823,1.0,label-label,0.557,0.25,0.65,0.1,0.24777653501727057,0.65,0.055700000000000006,0.9534765350172706,0.2598664213721657,0.68171578022969,0.05841779839814421,1,high,0.791,0.883,16.0
189,Pudding Pan Rock,,51.349998,1.1,162,199,0.72,9,8,79439,https://pleiades.stoa.org/places/79439,*Durovernum,Duroaverus|Durovernum|Dvroavervs,51.279876,1.08386,-30.0,640.0,precise,10.0,7.877498683507529,7.867498683507529,0.6747757036796701,0.23617149628788453,0.15,label-label,0.72,0.25,0.65,0.1,0.05904287407197113,0.0975,0.072,0.22854287407197116,0.2583448480365997,0.4266157953771771,0.31503935658622306,1,low,,,
19,Barburgh Mill,,55.178001,-3.724208,140,160,0.5,0,0,655739578,https://pleiades.stoa.org/places/655739578,Barburgh Mill Roman fortlet,,55.1789963,-3.7263433,1700.0,2100.0,precise,20.0,0.17501557774873278,0.15501557774873279,0.9922791809452621,0.8434373038034729,0.65,label-label,0.0,0.25,0.65,0.1,0.21085932595086823,0.42250000000000004,0.0,0.6333593259508683,0.33292211436896924,0.6670778856310308,0.0,1,medium,,,
190,Regensburg,,49.014999,12.09556,96,130,0.102,47,64,118929,https://pleiades.stoa.org/places/118929,Reginum/Castra Regina,Castra Regina|Regensburg|Reginum,49.019807400000005,12.098512249999999,-30.0,640.0,precise,20.0,0.5763883409960797,0.5563883409960797,0.972563979417105,0.972563979417105,0.97,label-alt,0.102,0.25,0.65,0.1,0.24314099485427626,0.6305,0.0102,0.8838409948542763,0.2750958557815756,0.7133636068826542,0.011540537335770141,1,high,,,
191,Rheingönheim,,49.44514,8.41944,43,71,0.639,10,8,109123,https://pleiades.stoa.org/places/109123,Ludwigshafen,,49.4606205,8.441504,-30.0,640.0,precise,10.0,2.3466474434782065,2.3366474434782067,0.8897343248944276,0.31140701371304963,0.15,label-label,0.639,0.25,0.65,0.1,0.07785175342826241,0.0975,0.0639,0.23925175342826244,0.3253967935980272,0.40752052431345936,0.2670826820885133,1,low,,,
192,Ribchester,Bremetennacum Veteranorum,53.799999,-2.533333,64,91,0.628,9,9,79352,https://pleiades.stoa.org/places/79352,Bremetennacum Veteranorum,Bremetennacum Veteranorum,53.81195539655067,-2.5322888184838943,-30.0,640.0,precise,10.0,1.3312592851014247,1.3212592851014247,0.9360719233647048,0.9360719233647048,0.97,alt-label,0.628,0.25,0.65,0.1,0.2340179808411762,0.6305,0.06280000000000001,0.9273179808411761,0.252360016387148,0.6799177984536322,0.06772218515921985,1,high,,,
193,Rinschheim,,49.514442,9.39361,155,180,0.5,0,0,119043,https://pleiades.stoa.org/places/119043,Walldürn,,49.5802115,9.378551000000002,-30.0,300.0,precise,10.0,7.393503984040585,7.383503984040585,0.6913042838810839,0.24195649935837935,0.15,label-label,0.5,0.25,0.65,0.1,0.060489124839594836,0.0975,0.05,0.20798912483959486,0.2908283059811189,0.468774509605701,0.24039718441318,1,low,,,
194,Rißtissen,,48.27099,9.82587,65,95,0.5,0,0,118933,https://pleiades.stoa.org/places/118933,Risstissen,,48.2676055,9.832115,-30.0,300.0,precise,10.0,0.596054773781617,0.586054773781617,0.9711224236306151,0.33989284827071525,0.15,label-label,0.5,0.25,0.65,0.1,0.08497321206767881,0.0975,0.05,0.2324732120676788,0.3655182948259044,0.4194031610472836,0.2150785441268121,1,low,,,
195,Roecliffe,,54.087303,-1.427329,57,83,0.785,6,3,209534779,https://pleiades.stoa.org/places/209534779,Roecliffe Fort,,54.092747,-1.409909,43.0,410.0,precise,25.0,1.2872986318429676,1.2622986318429676,0.9388355656219066,0.7980102307786208,0.65,label-label,0.785,0.25,0.65,0.1,0.1995025576946552,0.42250000000000004,0.07850000000000001,0.7005025576946553,0.28479918524668274,0.6031384116432665,0.11206240311005071,1,medium,,,
196,Rottenburg am Neckar,,48.466667,8.933333,73,103,0.582,12,11,118985,https://pleiades.stoa.org/places/118985,Sumelocenna,Rottenburg am Neckar|Samulocenis|Samvlocenis|Sumelocenna,48.4776425,8.937121000000001,-30.0,300.0,precise,10.0,1.251963011685925,1.241963011685925,0.9397906412636305,0.9397906412636305,0.97,label-alt,0.582,0.25,0.65,0.1,0.23494766031590764,0.6305,0.0582,0.9236476603159076,0.2543693557731207,0.6826196038696782,0.06301104035720108,1,high,,,
197,Rottweil,Arae Flaviae,48.16783,8.62719,70,98,0.26,24,28,118572,https://pleiades.stoa.org/places/118572,Arae Flaviae,Arae Flaviae|Aris Flavis|Rottweil,48.166686999999996,8.627925,-30.0,300.0,precise,10.0,0.1382919562029917,0.1282919562029917,0.9936059318025258,0.9936059318025258,0.97,label-alt,0.26,0.25,0.65,0.1,0.24840148295063144,0.6305,0.026000000000000002,0.9049014829506314,0.2745066591566006,0.6967609313050469,0.028732409538352453,1,high,,,
198,Rough Castle,,55.997688,-3.854519,133,157,0.428,13,15,89282,https://pleiades.stoa.org/places/89282,Rough Castle,,55.997854493575545,-3.8552533186970517,,,precise,20.0,0.04927248487499156,0.029272484874991556,0.9985374463318434,0.9985374463318434,1.0,label-label,0.0,0.25,0.65,0.1,0.24963436158296085,0.65,0.0,0.8996343615829608,0.27748424498116564,0.7225157550188344,0.0,1,high,,,
199,Rougham,,52.755577,0.69727,145,175,0.5,0,0,79478,https://pleiades.stoa.org/places/79478,Gayton Thorpe,,52.73706,0.582851,-30.0,640.0,precise,10.0,7.972182505413659,7.962182505413659,0.671588736360473,0.23505605772616553,0.15,label-label,0.5,0.25,0.65,0.1,0.05876401443154138,0.0975,0.05,0.2062640144315414,0.2848970752047737,0.47269515367820036,0.24240777111702583,1,low,,,
2,Abergavenny,,51.833332,-3.016666,65,90,0.754,7,0,79484,https://pleiades.stoa.org/places/79484,‘Gobannio’,Abergavenny|Gobannio|Gobannium,51.8234205,-3.0194535,-30.0,640.0,precise,10.0,1.1186336982334872,1.1086336982334872,0.9460766527729351,0.9460766527729351,0.97,label-alt,0.754,0.25,0.65,0.1,0.23651916319323377,0.6305,0.07540000000000001,0.9424191631932337,0.2509702396031795,0.6690228983286518,0.08000686206816869,1,high,,,
20,Barochan Hill,,55.910342,-4.507793,40,80,0.5,0,0,89111,https://pleiades.stoa.org/places/89111,Barochan Hill,,55.884949,-4.537044,-30.0,300.0,precise,100.0,3.361279403413894,3.261279403413894,0.8495368416595508,0.8495368416595508,1.0,label-label,0.5,0.25,0.65,0.1,0.2123842104148877,0.65,0.05,0.9123842104148878,0.23277935763301996,0.7124191679121956,0.05480147445478428,1,high,,,
200,Saalburg,,50.271522,8.566659,90,120,0.241,29,31,109297,https://pleiades.stoa.org/places/109297,Saalburg Roman Fort,Kastell Saalburg|Römerkastell Saalburg|Saalburg|Saalburg castrum,50.2715322203374,8.566651620566516,,,precise,20.0,0.00125163035247623,0.0,1.0,1.0,0.97,label-alt,0.0,0.25,0.65,0.1,0.25,0.6305,0.0,0.8805,0.2839295854628052,0.7160704145371948,0.0,1,high,,,
201,Schirenhof,,48.786795,9.777356,154,187,0.375,19,27,458048480,https://pleiades.stoa.org/places/458048480,Kastellbad Schirenhof,,48.78584398278197,9.77532102273656,,,precise,20.0,0.18278436855388627,0.16278436855388628,0.9918938153268758,0.8431097430278446,0.65,label-label,0.0,0.25,0.65,0.1,0.21077743575696115,0.42250000000000004,0.0,0.6332774357569612,0.3328358533807814,0.6671641466192186,0.0,1,medium,,,
202,South Shields,,54.99859,-1.4323,152,187,0.505,15,19,89104,https://pleiades.stoa.org/places/89104,Arbeia,Arbeia|South Shields,55.004406544631586,-1.4309707213819414,-30.0,640.0,precise,200.0,0.6523036186446549,0.4523036186446549,0.977638625379836,0.977638625379836,0.97,label-alt,0.505,0.25,0.65,0.1,0.244409656344959,0.6305,0.0505,0.925409656344959,0.2641096887947882,0.6813198843096712,0.054570426895540675,1,high,,,
203,Southwark,,51.5,-0.089161,65,89,0.152,30,33,404424015,https://pleiades.stoa.org/places/404424015,Southwark,Southwark,51.50423891938271,-0.09117030413103772,,,precise,20.0,0.49143754517982174,0.4714375451798217,0.9767037693560038,0.9767037693560038,1.0,label-label,0.0,0.25,0.65,0.1,0.24417594233900095,0.65,0.0,0.894175942339001,0.2730737104157391,0.7269262895842609,0.0,1,high,,,
204,Stamford Bridge,,53.990833,-0.913611,65,90,0.5,0,0,89175,https://pleiades.stoa.org/places/89175,Eburacum,Eboracum|Eburacum|York,53.957672,-1.082304,-30.0,640.0,precise,1860.0,11.632288707393547,9.772288707393548,0.6134758159763031,0.21471653559170606,0.15,label-label,0.5,0.25,0.65,0.1,0.053679133897926515,0.0975,0.05,0.20117913389792652,0.2668225717939616,0.48464270678026267,0.24853472142577573,1,low,,,
205,Stanwix,,54.900001,-2.933332,138,172,0.468,14,21,89307,https://pleiades.stoa.org/places/89307,Uxelodu(nu)m,Axeloduno|Petriana|Stanwix|Uxelodum|Uxelodunum,54.90505136750754,-2.9342740337938924,-30.0,640.0,precise,5.0,0.5647964305979676,0.5597964305979676,0.9723982642775361,0.9723982642775361,0.97,label-alt,0.468,0.25,0.65,0.1,0.24309956606938402,0.6305,0.04680000000000001,0.920399566069384,0.2641239468501206,0.6850285715502716,0.0508474815996078,1,high,,,
206,Stockstadt,,49.976943,9.064167,68,98,0.634,8,11,118976,https://pleiades.stoa.org/places/118976,Stockstadt,,49.97895,9.065304,-30.0,300.0,precise,10.0,0.2375174826517099,0.2275174826517099,0.9886885864601487,0.9886885864601487,1.0,label-label,0.634,0.25,0.65,0.1,0.24717214661503717,0.65,0.0634,0.9605721466150372,0.2573176283385353,0.6766800414633475,0.06600233019811727,1,high,,,
207,Strageath,,56.341598,-3.782971,106,135,0.096,42,53,89293,https://pleiades.stoa.org/places/89293,Strageath,,56.34105,-3.782655,-30.0,300.0,precise,100.0,0.06397133596605956,0.0,1.0,1.0,1.0,label-label,0.096,0.25,0.65,0.1,0.25,0.65,0.009600000000000001,0.9096000000000001,0.2748460861917326,0.7145998240985048,0.010554089709762533,1,high,,,
208,Straubing,,48.816669,12.56667,71,97,0.303,20,25,118968,https://pleiades.stoa.org/places/118968,Sorviodurum,Sorvioduro|Sorviodurum|Sorviodvro,48.8867769,12.5964322,-30.0,640.0,precise,20.0,8.094088069300835,8.074088069300835,0.6678415037291097,0.23374452630518835,0.15,label-label,0.303,0.25,0.65,0.1,0.05843613157629709,0.0975,0.0303,0.1862361315762971,0.3137744060816524,0.5235289155480352,0.16269667837031246,1,low,,,
209,Sulz,,48.366661,8.3,67,91,0.62,6,9,118983,https://pleiades.stoa.org/places/118983,Sulz,,48.362353,8.631848,-30.0,300.0,precise,10.0,24.52053671549759,24.51053671549759,0.2936029790177942,0.2936029790177942,1.0,label-label,0.62,0.25,0.65,0.1,0.07340074475444855,0.65,0.062,0.7854007447544487,0.09345642367247424,0.8276029840068704,0.07894059232065533,1,high,,,
21,Bearsden,,55.916667,-4.349999,138,168,0.846,4,4,89114,https://pleiades.stoa.org/places/89114,Bearsden,,55.919443,-4.333791,-30.0,300.0,precise,10.0,1.0560601764805375,1.0460601764805375,0.9490412553959365,0.9490412553959365,1.0,label-label,0.846,0.25,0.65,0.1,0.23726031384898413,0.65,0.08460000000000001,0.9718603138489842,0.24413005703394905,0.6688203960358469,0.08704954693020407,1,high,,,
210,Tác,Gorsium/Herculia,47.089804,18.420326,155,189,0.423,17,24,197287,https://pleiades.stoa.org/places/197287,Gorsium/Herculia,Gorsium|Herculia|Tác,47.089995558358346,18.42054530874704,-30.0,640.0,precise,20.0,0.027006897474929344,0.007006897474929344,0.9996497164898525,0.9996497164898525,0.97,label-alt,0.423,0.25,0.65,0.1,0.24991242912246311,0.6305,0.042300000000000004,0.9227124291224631,0.270845413191345,0.6833114848139967,0.04584310199465831,1,high,,,
211,Templeborough,,53.416671,-1.383332,67,92,0.682,6,8,79710,https://pleiades.stoa.org/places/79710,Templebrough,Templeborough,53.41934336677471,-1.379914199502954,,,precise,5.0,0.37363148290472875,0.36863148290472875,0.9817372485039312,0.9817372485039312,0.97,label-alt,0.0,0.25,0.65,0.1,0.2454343121259828,0.6305,0.0,0.8759343121259827,0.2801971663038162,0.7198028336961839,0.0,1,high,,,
212,Theilenhofen,,49.083333,11.85,80,100,0.5,0,0,118711,https://pleiades.stoa.org/places/118711,Grossprüfening,,49.01289,12.046385,-30.0,640.0,precise,100.0,16.31573847244013,16.21573847244013,0.44450813460497623,0.15557784711174166,0.15,label-label,0.5,0.25,0.65,0.1,0.038894461777935416,0.0975,0.05,0.1863944617779354,0.2086674754546789,0.5230842111401276,0.2682483134051937,1,low,,,
213,Topsham,,50.68333,-3.45,45,90,0.5,0,0,830662331,https://pleiades.stoa.org/places/830662331,"Park Field, Topsham",,50.6850732,-3.4658063,1700.0,2100.0,precise,20.0,1.1303381716725707,1.1103381716725707,0.9459960280822506,0.6464306191895379,0.4833333333333333,label-label,0.0,0.25,0.65,0.1,0.16160765479738448,0.31416666666666665,0.0,0.47577432146405113,0.3396729237090517,0.6603270762909483,0.0,1,medium,,,
214,Torre Annunziata,,40.75,14.449999,58,85,0.629,11,7,723728396,https://pleiades.stoa.org/places/723728396,Torre di Mercurio,Torre di Mercurio|Tower XI,40.75275425496198,14.4828627058676,,,precise,20.0,2.785188423267308,2.765188423267308,0.8708727396194286,0.5225236437716572,0.4,label-label,0.0,0.25,0.65,0.1,0.1306309109429143,0.26,0.0,0.3906309109429143,0.3344100717160203,0.6655899282839798,0.0,1,low,,,
215,Trier,Colonia Augusta Treverorum,49.75,6.633333,184,224,0.611,13,15,108894,https://pleiades.stoa.org/places/108894,Col. Augusta Treverorum,Col. Augusta Treverorum|Trier,49.75223387300047,6.641692916579501,,,rough,0.0,0.6499493399970266,0.6499493399970266,0.5808149411012525,0.5808149411012525,0.97,label-alt,0.0,0.25,0.65,0.1,0.14520373527531313,0.6305,0.0,0.7757037352753131,0.1871896816685785,0.8128103183314215,0.0,1,high,,,
216,Unknown,,0.0,0.0,70,100,0.5,0,0,354110,https://pleiades.stoa.org/places/354110,Dugial,,26.12117,13.695472,-30.0,640.0,precise,10.0,3254.5324321151506,3254.5224321151504,2.132766571559712e-71,7.464683000458991e-72,0.15,label-label,0.5,0.25,0.65,0.1,1.8661707501147479e-72,0.0975,0.05,0.14750000000000002,1.2652005085523712e-71,0.6610169491525423,0.3389830508474576,1,low,,,
217,Unknown,,51.366664,1.133333,175,200,0.5,0,0,79439,https://pleiades.stoa.org/places/79439,*Durovernum,Duroaverus|Durovernum|Dvroavervs,51.279876,1.08386,-30.0,640.0,precise,10.0,10.244448929960749,10.234448929960749,0.5994621475759613,0.20981175165158644,0.15,label-label,0.5,0.25,0.65,0.1,0.05245293791289661,0.0975,0.05,0.1999529379128966,0.26232641770808157,0.48761474083703094,0.25005884145488766,1,low,,,
219,Urspring,,48.383338,9.716667,103,125,0.04,53,49,118542,https://pleiades.stoa.org/places/118542,Ad Lunam,Ad Lunam|Adlvnam|Castra Ad Lunam|Kastell Urspring|Urspring|Urspring (Kastell),48.54988794765647,9.900656022759128,,,precise,20.0,22.956231680460252,22.936231680460253,0.31764795028948994,0.31764795028948994,0.97,label-alt,0.0,0.25,0.65,0.1,0.07941198757237249,0.6305,0.0,0.7099119875723724,0.11186173633147276,0.8881382636685273,0.0,1,medium,,,
22,Bendorf,,50.433333,7.566667,90,125,0.5,0,0,108804,https://pleiades.stoa.org/places/108804,Bendorf,,50.421092,7.5722295,-30.0,300.0,precise,10.0,1.4170260095687959,1.4070260095687959,0.9320663270384896,0.9320663270384896,1.0,label-label,0.5,0.25,0.65,0.1,0.2330165817596224,0.65,0.05,0.9330165817596224,0.2497453810736834,0.6966650032887225,0.05358961563759404,1,high,,,
220,Valkenburg,Praetorium Agrippinae,52.18333,4.433332,47,74,0.367,17,21,99021,https://pleiades.stoa.org/places/99021,Praetorium Agrippinae,Praetorium Agrippinae|Pretoriu Agrippine|Pretoriv̄ Agrippine|Valkenburg,52.1798775,4.4330035,-30.0,640.0,precise,10.0,0.38455380257346633,0.3745538025734663,0.9814465834505218,0.9814465834505218,0.97,label-alt,0.367,0.25,0.65,0.1,0.24536164586263046,0.6305,0.0367,0.9125616458626303,0.26887131074930715,0.6909122280763818,0.040216461174311206,1,high,,,
221,Vaspuszta,,47.721389,17.908611,170,200,0.5,0,0,197086,https://pleiades.stoa.org/places/197086,Ad Statuas?,,47.736167,17.899833,-30.0,640.0,precise,10.0,1.7695456633443662,1.7595456633443662,0.9157816801463232,0.3205235880512131,0.15,label-label,0.5,0.25,0.65,0.1,0.08013089701280328,0.0975,0.05,0.22763089701280326,0.35202118018406026,0.4283249825901975,0.21965383722574233,1,low,,,
222,Velsen,Flevum,52.46667,4.633333,26,55,0.606,8,12,99058,https://pleiades.stoa.org/places/99058,Velsen,,52.45268,4.6437735,-30.0,300.0,precise,10.0,1.7088989971765776,1.6988989971765776,0.9185628500241906,0.9185628500241906,1.0,label-label,0.606,0.25,0.65,0.1,0.22964071250604765,0.65,0.0606,0.9402407125060477,0.2442360870483691,0.6913123324212779,0.06445158053035298,1,high,,,
223,Verulamium,,51.75,-0.333333,88,119,0.132,45,43,79739,https://pleiades.stoa.org/places/79739,Verulamium,Verulamium,51.75202764213488,-0.35846817129313147,,,precise,5.0,1.7448991598904304,1.7398991598904305,0.9166817175357422,0.9166817175357422,1.0,label-label,0.0,0.25,0.65,0.1,0.22917042938393556,0.65,0.0,0.8791704293839355,0.2606666713580472,0.7393333286419529,0.0,1,high,,,
224,Waddon Hill,,50.8104,-2.78625,33,63,0.8,6,3,723056584,https://pleiades.stoa.org/places/723056584,Waddon Hill,,50.81053079632086,-2.7846169048048246,,,precise,20.0,0.11566389426912793,0.09566389426912793,0.9952282265450864,0.9952282265450864,1.0,label-label,0.0,0.25,0.65,0.1,0.2488070566362716,0.65,0.0,0.8988070566362716,0.2768192069690866,0.7231807930309134,0.0,1,high,,,
225,Walheim,,49.014167,9.15111,73,113,0.105,60,67,119042,https://pleiades.stoa.org/places/119042,Walheim,,49.0106665,9.1544525,-30.0,300.0,precise,10.0,0.4592749017208298,0.4492749017208298,0.9777866861229086,0.9777866861229086,1.0,label-label,0.105,0.25,0.65,0.1,0.24444667153072716,0.65,0.0105,0.9049466715307272,0.2701227367544686,0.7182743695830363,0.0116028936624952,1,high,,,
226,Walldürn,,49.57857,9.386719,163,195,0.482,11,21,119043,https://pleiades.stoa.org/places/119043,Walldürn,,49.5802115,9.378551000000002,-30.0,300.0,precise,10.0,0.6165362622165952,0.6065362622165952,0.9701284310442486,0.9701284310442486,1.0,label-label,0.482,0.25,0.65,0.1,0.24253210776106215,0.65,0.0482,0.9407321077610622,0.2578120867356036,0.6909512226036345,0.05123669066076182,1,high,,,
227,Wallsend,,54.988491,-1.523298,149,184,0.426,20,22,89288,https://pleiades.stoa.org/places/89288,Segedunum,Segedunum|Wallsend,54.98788734922942,-1.532320033290251,-30.0,640.0,precise,200.0,0.5794851735080688,0.3794851735080688,0.9812046194243322,0.9812046194243322,0.97,label-alt,0.426,0.25,0.65,0.1,0.24530115485608306,0.6305,0.0426,0.918401154856083,0.2670958693366655,0.6865191715692057,0.046384959094128736,1,high,,,
228,Watercrook,Alone?/Alauna?,54.309425,-2.748589,74,98,0.565,8,11,89102,https://pleiades.stoa.org/places/89102,Watercrook Roman Fort and Settlement,Alauna|Alone|Watercrook Roman Fort,54.30979,-2.7485995,-30.0,300.0,precise,20.0,0.0405919197443164,0.020591919744316397,0.9989709338648725,0.8101654273644116,0.611,alt-alt,0.565,0.25,0.65,0.1,0.2025413568411029,0.39715,0.056499999999999995,0.6561913568411029,0.3086620308687614,0.6052350367915165,0.08610293233972222,1,medium,,,
229,Weissenburg,,49.030803,10.9624,71,98,0.648,8,8,118600,https://pleiades.stoa.org/places/118600,Biriciana,Biriciana,49.03099305561315,10.962530145853535,-30.0,640.0,precise,20.0,0.023165543584514385,0.0031655435845143846,0.9998417353459462,0.3499446073710812,0.15,label-label,0.648,0.25,0.65,0.1,0.0874861518427703,0.0975,0.06480000000000001,0.2497861518427703,0.35024420368123166,0.3903338887312379,0.2594219075875305,1,low,,,
23,Benwell,,54.975463,-1.660947,153,185,0.452,17,19,89150,https://pleiades.stoa.org/places/89150,Condercum,Benwell|Condercum,54.977094446886554,-1.6642414975564166,-30.0,640.0,precise,200.0,0.27768964504322013,0.07768964504322012,0.9961230525895457,0.9961230525895457,0.97,label-alt,0.452,0.25,0.65,0.1,0.24903076314738642,0.6305,0.045200000000000004,0.9247307631473863,0.2693008311952256,0.6818200768557204,0.048879091949054036,1,high,,,
230,Welzheim,,48.883338,9.649999,151,189,0.489,14,23,119046,https://pleiades.stoa.org/places/119046,Welzheim,,48.8740905,9.637961,-30.0,300.0,precise,10.0,1.3536274202929475,1.3436274202929475,0.935025599415118,0.935025599415118,1.0,label-label,0.489,0.25,0.65,0.1,0.2337563998537795,0.65,0.0489,0.9326563998537796,0.25063506763093835,0.6969340478464588,0.05243088452260282,1,high,,,
231,Wiesbaden,Aquae Mattiacorum,50.083328,8.25,93,123,0.022,77,84,108750,https://pleiades.stoa.org/places/108750,Aquae Mattiacorum,Aquae Mattiacorum|Mattiaci|Wiesbaden,50.084205999999995,8.238584,-30.0,640.0,precise,10.0,0.8203639973156593,0.8103639973156593,0.9602916871725519,0.9602916871725519,0.97,label-alt,0.022,0.25,0.65,0.1,0.24007292179313797,0.6305,0.0022,0.8727729217931379,0.2750691683925081,0.7224101301225283,0.00252070148496362,1,high,,,
232,Wilderspool,,53.369159,-2.586209,74,102,0.611,9,10,79763,https://pleiades.stoa.org/places/79763,Wilderspool,,53.372767,-2.603226,-30.0,640.0,precise,100.0,1.1981168234477082,1.0981168234477081,0.9465742720812156,0.9465742720812156,1.0,label-label,0.611,0.25,0.65,0.1,0.2366435680203039,0.65,0.0611,0.947743568020304,0.24969155793335246,0.6858395265691476,0.06446891549749988,1,high,,,
233,Wimborne,,50.79,-2.014188,39,68,0.718,7,7,79740,https://pleiades.stoa.org/places/79740,Vindocladia,Vindocladia,50.826394,-2.05251,-30.0,640.0,precise,100.0,4.860835515118386,4.760835515118386,0.7881697640183138,0.27585941740640985,0.15,label-label,0.718,0.25,0.65,0.1,0.06896485435160246,0.0975,0.0718,0.23826485435160247,0.2894461902040847,0.40920848467278054,0.3013453251231348,1,low,,,
234,Wössingen,,49.016109,8.601388,150,175,0.5,0,0,119031,https://pleiades.stoa.org/places/119031,Vicus Senot(ensis),Vicus Senot|Vicus Senotensis,48.950261,8.571926,-30.0,300.0,precise,10.0,7.631105462735406,7.6211054627354065,0.6831401292785442,0.23909904524749045,0.15,label-label,0.5,0.25,0.65,0.1,0.059774761311872614,0.0975,0.05,0.2072747613118726,0.28838417631528945,0.4703901207407409,0.2412257029439697,1,low,,,
235,Wroxeter,,52.666671,-2.65,128,161,0.157,41,45,79741,https://pleiades.stoa.org/places/79741,Viroconium,Viroconium|Wroxeter,52.67448765162919,-2.6438183009307314,,,precise,20.0,0.963951445917226,0.943951445917226,0.9538989149728617,0.9538989149728617,0.97,label-alt,0.0,0.25,0.65,0.1,0.23847472874321543,0.6305,0.0,0.8689747287432154,0.2744322945825107,0.7255677054174893,0.0,1,high,,,
236,York,Eburacum,53.96667,-1.083333,64,92,0.28,22,28,89175,https://pleiades.stoa.org/places/89175,Eburacum,Eboracum|Eburacum|York,53.957672,-1.082304,-30.0,640.0,precise,1860.0,1.0027952446977533,0.0,1.0,1.0,0.97,label-alt,0.28,0.25,0.65,0.1,0.25,0.6305,0.028000000000000004,0.9085,0.27517886626307103,0.6940011007154651,0.030820033021463956,1,high,,,
237,Zalalövő,Municipium Aelium Salla,46.848333,16.585281,140,170,0.5,0,0,197482,https://pleiades.stoa.org/places/197482,Sala,Sala,46.846569,16.585295,-30.0,640.0,precise,10.0,0.19615101121247377,0.18615101121247377,0.990735630613927,0.34675747071487445,0.15,label-label,0.5,0.25,0.65,0.1,0.08668936767871861,0.0975,0.05,0.23418936767871862,0.3701678199056698,0.4163297461640487,0.2135024339302814,1,low,,,
238,Zugmantel,,50.189704,8.203443,102,136,0.084,58,62,109472,https://pleiades.stoa.org/places/109472,Zugmantel,,50.1913545,8.202941,-30.0,300.0,precise,10.0,0.18697469930453986,0.17697469930453985,0.9911902998688642,0.9911902998688642,1.0,label-label,0.084,0.25,0.65,0.1,0.24779757496721605,0.65,0.008400000000000001,0.906197574967216,0.27344762534393313,0.7172828729137963,0.0092695017422706,1,high,,,
239,Zurzach,,47.349998,8.18,33,62,0.685,8,8,177639,https://pleiades.stoa.org/places/177639,Tenedo,Bad Zurzach|Tenedo|Tenedone|Wrzacha,47.58774,8.29323,-30.0,640.0,precise,10.0,27.772062016545597,27.762062016545595,0.2495482237691235,0.20724979984025707,0.6305,label-alt,0.685,0.25,0.65,0.1,0.05181244996006427,0.409825,0.0685,0.5301374499600643,0.09773399325772467,0.7730542334461986,0.12921177329607664,1,medium,,,
24,Berlingen,,50.816665,5.3,55,75,0.5,0,0,108806,https://pleiades.stoa.org/places/108806,Bergilers,,50.715456,5.328087,-30.0,640.0,precise,10.0,11.425988799459757,11.415988799459758,0.5650735157248133,0.19777573050368466,0.15,label-label,0.5,0.25,0.65,0.1,0.049443932625921165,0.0975,0.05,0.1969439326259212,0.2510558815733402,0.49506475624813095,0.2538793621785287,1,low,,,
240,Zwammerdam,,52.099998,4.733333,103,138,0.086,55,66,99014,https://pleiades.stoa.org/places/99014,Nigrum Pullum,Nigrum Pullum|Zwammerdam,52.10502512746416,4.715887864474292,,,precise,20.0,1.3161379515809715,1.2961379515809714,0.9372484308452421,0.9372484308452421,0.97,label-alt,0.0,0.25,0.65,0.1,0.23431210771131053,0.6305,0.0,0.8648121077113105,0.2709399019995313,0.7290600980004688,0.0,1,high,,,
25,Bewcastle,,55.066665,-2.683333,152,192,0.724,8,10,89181,https://pleiades.stoa.org/places/89181,Fanum Cocidi,Bewcastle|Fanococidi|Fanocodi|Fanum Cocidii,55.06406625143644,-2.682145604348282,,,precise,5.0,0.2986955045513027,0.2936955045513027,0.9854225202388303,0.9854225202388303,0.97,label-alt,0.0,0.25,0.65,0.1,0.24635563005970756,0.6305,0.0,0.8768556300597075,0.280953467839321,0.719046532160679,0.0,1,high,,,
26,Binchester,Vinovia,54.676732,-1.676772,69,95,0.716,6,6,89316,https://pleiades.stoa.org/places/89316,Vinovia,Binchester|Vinovia,54.676588743328104,-1.676632629034752,,,precise,20.0,0.01827665549330558,0.0,1.0,1.0,0.97,label-alt,0.0,0.25,0.65,0.1,0.25,0.6305,0.0,0.8805,0.2839295854628052,0.7160704145371948,0.0,1,high,,,
27,Birdoswald,Banna,54.991588,-2.60325,129,159,0.324,23,26,89109,https://pleiades.stoa.org/places/89109,Banna,Banna|Birdoswald,54.989464698218995,-2.6024173332862843,-30.0,640.0,precise,20.0,0.24200244567699047,0.22200244567699048,0.9889612567586308,0.9889612567586308,0.97,label-alt,0.324,0.25,0.65,0.1,0.2472403141896577,0.6305,0.032400000000000005,0.9101403141896576,0.27165076673895916,0.6927503267024986,0.03559890655854236,1,high,,,
28,Birrens,Blatobulgium,55.063598,-3.2228,134,166,0.413,18,21,89117,https://pleiades.stoa.org/places/89117,Blatobulgium,Birrens|Blatobulgium,55.06499648243147,-3.2243812490011896,,,precise,20.0,0.1852560414341198,0.16525604143411982,0.9917712410489491,0.9917712410489491,0.97,label-alt,0.0,0.25,0.65,0.1,0.24794281026223727,0.6305,0.0,0.8784428102622373,0.282252649080502,0.7177473509194979,0.0,1,high,,,
29,Bishopton,,54.58333,-1.43333,138,170,0.639,4,14,89200,https://pleiades.stoa.org/places/89200,Holme House,,54.503845,-1.594089,-30.0,300.0,precise,100.0,13.624956191894402,13.524956191894402,0.5085214865614833,0.17798252029651915,0.15,label-label,0.639,0.25,0.65,0.1,0.04449563007412979,0.0975,0.0639,0.2058956300741298,0.21610769523427847,0.4735408904253893,0.3103514143403321,1,low,,,
3,Aislingen,,48.50648,10.45778,45,70,0.526,12,11,118549,https://pleiades.stoa.org/places/118549,Aislingen,,48.509004,10.459194,-30.0,300.0,precise,10.0,0.2993641958545937,0.28936419585459366,0.9856359518055383,0.9856359518055383,1.0,label-label,0.526,0.25,0.65,0.1,0.24640898795138458,0.65,0.05260000000000001,0.9490089879513846,0.2596487399801186,0.6849250199443822,0.05542624007549924,1,high,,,
30,Böbingen,,48.816669,9.916666,153,180,0.879,4,0,118601,https://pleiades.stoa.org/places/118601,Böbingen,,48.815795,9.9242565,-30.0,300.0,precise,10.0,0.5642043286646591,0.5542043286646591,0.9726701898023264,0.9726701898023264,1.0,label-label,0.879,0.25,0.65,0.1,0.2431675474505816,0.65,0.0879,0.9810675474505816,0.24786014794035421,0.6625435747916653,0.08959627726798058,1,high,,,
31,Bothwellhaugh,,55.796554,-4.024915,140,171,0.539,9,17,463220209,https://pleiades.stoa.org/places/463220209,Bothwellhaugh,,55.7974847,-4.0280558,43.0,410.0,precise,20.0,0.2219250647800263,0.2019250647800263,0.9899545428320002,0.9899545428320002,1.0,label-label,0.539,0.25,0.65,0.1,0.24748863570800006,0.65,0.0539,0.9513886357080001,0.2601341096783493,0.6832118606465022,0.05665402967514841,1,high,,,
32,Bowes,,54.515506,-2.010818,96,124,0.08,47,52,301646303,https://pleiades.stoa.org/places/301646303,Bowes Moor,,54.5080356,-2.1095,-30.0,300.0,precise,20.0,6.424121687003283,6.4041216870032835,0.7259994045402546,0.6170994938592165,0.65,label-label,0.08,0.25,0.65,0.1,0.15427487346480412,0.42250000000000004,0.008,0.5847748734648042,0.26381925842798626,0.7225002632152748,0.013680478356738931,1,medium,,,
33,Bowness-on-Solway,,54.95389,-3.21187,145,185,0.463,22,22,89239,https://pleiades.stoa.org/places/89239,Maia,Bowness-on-Solway|Maia|Mais,54.95290333233697,-3.2151477624587503,-30.0,640.0,precise,200.0,0.23630733946963312,0.036307339469633104,0.9981862798084873,0.9981862798084873,0.97,label-alt,0.463,0.25,0.65,0.1,0.24954656995212182,0.6305,0.04630000000000001,0.9263465699521218,0.26938791381828037,0.6806307924609548,0.04998129372076481,1,high,,,
34,Brecon,Cicutio,51.95,-3.383332,66,93,0.502,13,14,79389,https://pleiades.stoa.org/places/79389,‘Cicutio’,Cicutio,51.956478622154016,-3.451705835402657,-30.0,640.0,precise,20.0,4.740714204843939,4.720714204843939,0.7897524711772207,0.7897524711772207,0.97,alt-label,0.502,0.25,0.65,0.1,0.19743811779430517,0.6305,0.0502,0.8781381177943052,0.2248372024781562,0.717996391710772,0.057166405811071776,1,high,,,
35,Bregenz,Brigantium,47.50311,9.7471,91,116,0.027,63,69,187325,https://pleiades.stoa.org/places/187325,Brigantium,BRIGANTIO|Brigantii|Brigantio|Brigantium,47.503041,9.747061,-30.0,640.0,precise,10.0,0.008212746021562335,0.0,1.0,1.0,0.97,alt-label,0.027,0.25,0.65,0.1,0.25,0.6305,0.0027,0.8832,0.28306159420289856,0.7138813405797101,0.0030570652173913045,1,high,,,
36,Broomholm,,55.119319,-2.987909,60,80,0.5,0,0,752369279,https://pleiades.stoa.org/places/752369279,Broomholm,,55.12352,-2.97594,,,precise,5.0,0.8929833244568405,0.8879833244568405,0.9565720500037603,0.9565720500037603,1.0,label-label,0.0,0.25,0.65,0.1,0.23914301250094008,0.65,0.0,0.8891430125009401,0.26895899662787626,0.7310410033721237,0.0,1,high,,,
37,Brough-on-Humber,Petuaria,53.721889,-0.590419,63,91,0.676,7,9,79639,https://pleiades.stoa.org/places/79639,*Petuaria,Petuaria,53.687689,-0.59056,-30.0,640.0,precise,100.0,3.8028830687957464,3.7028830687957464,0.830984485945634,0.830984485945634,0.97,alt-label,0.676,0.25,0.65,0.1,0.2077461214864085,0.6305,0.06760000000000001,0.9058461214864084,0.22933930670864563,0.696034331929808,0.07462636136154643,1,high,,,
38,Brough-under-Stainmore,,54.653861,-2.717554,65,95,0.5,0,0,89312,https://pleiades.stoa.org/places/89312,Verteris,Brough-under-Stainmore|Verteris,54.52137012329703,-2.3238223025264313,,,precise,20.0,29.336602240593276,29.316602240593276,0.23088625045109107,0.23088625045109107,0.97,label-alt,0.0,0.25,0.65,0.1,0.05772156261277277,0.6305,0.0,0.6882215626127727,0.08387061049589602,0.916129389504104,0.0,1,medium,,,
39,Brougham,,54.654,-2.7191,168,200,0.897,4,0,89127,https://pleiades.stoa.org/places/89127,Brocavum,BROCAVVM|Brocauum|Brocavum|Brougham,54.65315712112182,-2.7172354935019487,43.0,410.0,precise,20.0,0.15221686886782873,0.13221686886782874,0.9934109601090438,0.9934109601090438,0.97,label-alt,0.897,0.25,0.65,0.1,0.24835274002726096,0.6305,0.0897,0.9685527400272609,0.2564163310510802,0.6509712625274839,0.09261240642143587,1,high,,,
4,Albertfalva,,47.439217,19.046778,133,166,0.307,26,30,197100,https://pleiades.stoa.org/places/197100,Albertfalva,,47.441047999999995,19.042775499999998,-30.0,300.0,precise,100.0,0.3634076249197831,0.2634076249197831,0.9869159687220652,0.9869159687220652,1.0,label-label,0.307,0.25,0.65,0.1,0.2467289921805163,0.65,0.0307,0.9274289921805163,0.2660354531298635,0.7008622821589374,0.03310226471119904,1,high,,,
40,Buch,,48.93333,10.149999,163,198,0.555,11,18,118614,https://pleiades.stoa.org/places/118614,Buch,,48.9087505,10.1395305,-30.0,300.0,precise,10.0,2.8381336808091078,2.828133680809108,0.8681361827661117,0.8681361827661117,1.0,label-label,0.555,0.25,0.65,0.1,0.21703404569152793,0.65,0.05550000000000001,0.922534045691528,0.23525857577303833,0.7045810428738839,0.06016038135307778,1,high,,,
41,Budapest,,47.49835,19.04045,152,186,0.315,26,30,197181,https://pleiades.stoa.org/places/197181,Buda,,47.498372,19.040872,-30.0,300.0,precise,10.0,0.031796845788818764,0.021796845788818763,0.9989107513729812,0.3496187629805434,0.15,label-label,0.315,0.25,0.65,0.1,0.08740469074513585,0.0975,0.0315,0.21640469074513585,0.4038946218965009,0.4505447625200866,0.14556061558341257,1,low,,,
42,Burghöfe,Summuntorium,48.659999,10.84333,56,82,0.605,9,9,118986,https://pleiades.stoa.org/places/118986,Summuntorium,Summuntorium|Turenberc,48.6503594,10.8212809,-30.0,640.0,precise,20.0,1.9421698791942041,1.9221698791942041,0.9083654585568927,0.9083654585568927,0.97,alt-label,0.605,0.25,0.65,0.1,0.22709136463922316,0.6305,0.0605,0.9180913646392231,0.24735159635061146,0.6867508227220542,0.0658975809273343,1,high,,,
43,Burladingen,,48.283332,9.116666,62,94,0.335,21,28,118618,https://pleiades.stoa.org/places/118618,Burladingen,,48.289167,9.115248,-30.0,300.0,precise,10.0,0.6572514690544772,0.6472514690544772,0.9681554909557539,0.9681554909557539,1.0,label-label,0.335,0.25,0.65,0.1,0.24203887273893848,0.65,0.0335,0.9255388727389385,0.2615112988422357,0.7022935709620289,0.03619513019573534,1,high,,,
44,Butzbach,,50.439681,8.665183,78,110,0.276,25,32,108839,https://pleiades.stoa.org/places/108839,Butzbach,,50.437104,8.6735,-30.0,300.0,precise,10.0,0.6550214558455315,0.6450214558455315,0.9682634469508817,0.9682634469508817,1.0,label-label,0.276,0.25,0.65,0.1,0.24206586173772043,0.65,0.027600000000000003,0.9196658617377204,0.2632106635776758,0.7067784366506948,0.030010899771629504,1,high,,,
45,Cadder,,55.921009,-4.224601,143,177,0.62,10,12,89130,https://pleiades.stoa.org/places/89130,Cadder,,55.921359,-4.213507,-30.0,300.0,precise,10.0,0.6923202871609605,0.6823202871609605,0.9664593749693401,0.9664593749693401,1.0,label-label,0.62,0.25,0.65,0.1,0.24161484374233502,0.65,0.062,0.9536148437423351,0.25336732678588514,0.6816169067263689,0.06501576648774594,1,high,,,
46,Caerhûn,Kanovium/Conovium,53.216667,-3.833333,52,82,0.612,13,8,79542,https://pleiades.stoa.org/places/79542,Kanovium/Conovium,Caerhun|Caerhûn|Canovium|Canubium|Conovium|Kanovium,53.21599915,-3.8341202,-30.0,640.0,precise,20.0,0.09089576347354088,0.07089576347354087,0.996461487170809,0.996461487170809,0.97,label-alt,0.612,0.25,0.65,0.1,0.24911537179270224,0.6305,0.061200000000000004,0.9408153717927022,0.26478667256256516,0.6701633698847804,0.06504995755265436,1,high,,,
47,Caerleon,,51.60952,-2.95378,68,96,0.388,18,20,79532,https://pleiades.stoa.org/places/79532,Isca Silurum,Caerleon|Isca|Isca Augusta|Isca Silurum,51.610323,-2.955263,-30.0,640.0,precise,5.0,0.13586646353810017,0.13086646353810016,0.9934780377463254,0.9934780377463254,0.97,label-alt,0.388,0.25,0.65,0.1,0.24836950943658134,0.6305,0.0388,0.9176695094365812,0.27065245917244435,0.6870665239679873,0.042281016859568456,1,high,,,
48,Caernarfon,,53.137619,-4.265485,61,88,0.645,9,8,644273898,https://pleiades.stoa.org/places/644273898,Segontium: Roman Bath House,,53.1365316,-4.2657779,43.0,410.0,precise,20.0,0.12248193785167294,0.10248193785167294,0.994889008897231,0.34821115311403084,0.15,label-label,0.645,0.25,0.65,0.1,0.08705278827850771,0.0975,0.0645,0.24905278827850771,0.3495354895652057,0.3914832701690892,0.2589812402657051,1,low,,,
49,Caersws,,52.5167,-3.444389,63,87,0.463,14,12,79363,https://pleiades.stoa.org/places/79363,Caersws,,52.517244,-3.4313275,-30.0,640.0,precise,10.0,0.8858758772069104,0.8758758772069104,0.957151307601149,0.957151307601149,1.0,label-label,0.463,0.25,0.65,0.1,0.23928782690028724,0.65,0.04630000000000001,0.9355878269002873,0.2557620140196522,0.6947503818572828,0.049487604123064924,1,high,,,
5,Alcester,,52.21667,-1.866667,139,176,0.853,4,5,79288,https://pleiades.stoa.org/places/79288,Alauna,Alauna|Alcester,52.245772,-1.885446,-30.0,640.0,precise,10000.0,3.4795628129601486,0.0,1.0,1.0,0.97,label-alt,0.853,0.25,0.65,0.1,0.25,0.6305,0.0853,0.9658,0.25885276454752537,0.6528266721888589,0.08832056326361566,1,high,,,
50,Caerwent,,51.616661,-2.766666,118,149,0.133,42,47,122572946,https://pleiades.stoa.org/places/122572946,Walls of Caerwent (Venta Silurum),Walls of Caerwent (Venta Silurum),51.61109127702959,-2.7684531190638837,,,precise,20.0,0.6314990282557918,0.6114990282557918,0.9698877348868893,0.5334382541877891,0.35,label-label,0.0,0.25,0.65,0.1,0.13335956354694728,0.22749999999999998,0.0,0.36085956354694726,0.3695608403339362,0.6304391596660638,0.0,1,low,,,
51,Camelon,Colani(c)a?,56.008213,-3.82374,109,137,0.137,39,40,89148,https://pleiades.stoa.org/places/89148,Colani(c)a?,,56.008168892359684,-3.8249614810307304,,,precise,5.0,0.07609320605118762,0.07109320605118762,0.9964516500231382,0.9964516500231382,0.97,alt-label,0.0,0.25,0.65,0.1,0.24911291250578455,0.6305,0.0,0.8796129125057845,0.2832074301821329,0.7167925698178671,0.0,1,high,,,
52,Camulodunum,,51.883335,0.899999,38,67,0.639,7,10,79393,https://pleiades.stoa.org/places/79393,Col. Camulodunum,Col. Camulodunum|Colchester,51.89007402644582,0.9010877626743472,-30.0,640.0,precise,10.0,0.7530630257664802,0.7430630257664802,0.9635285584084854,0.8189992746472127,0.65,label-label,0.639,0.25,0.65,0.1,0.20474981866180317,0.42250000000000004,0.0639,0.6911498186618031,0.29624520347590855,0.6113001676221806,0.09245462890191086,1,medium,,,
53,Cap de Creus,,42.316665,3.316666,49,86,0.763,9,5,246578,https://pleiades.stoa.org/places/246578,Puig de S. Andreu,,42.006802981609,3.078698338655424,-550.0,640.0,precise,20.0,39.64679588354731,39.62679588354731,0.13788437681583066,0.07583640724870687,0.35,label-label,0.763,0.25,0.65,0.1,0.018959101812176717,0.22749999999999998,0.0763,0.3227591018121767,0.058740719334414285,0.7048600604062566,0.23639922025932916,1,low,,,
54,Cap Drammont,,43.416667,6.849999,40,75,0.637,14,7,159311,https://pleiades.stoa.org/places/159311,Untitled,,43.435929,6.706223,-30.0,640.0,precise,10000.0,11.806737093278823,1.806737093278823,0.9136233751354988,0.31976818129742457,0.15,label-label,0.637,0.25,0.65,0.1,0.07994204532435614,0.0975,0.0637,0.24114204532435615,0.33151433719004675,0.40432600573182653,0.2641596570781267,1,low,,,
55,Cappuck,,55.480972,-2.476309,140,175,0.424,21,21,104728999,https://pleiades.stoa.org/places/104728999,Cappuck,,55.483865427843966,-2.483926232898142,-30.0,300.0,precise,20.0,0.5778188091715569,0.5578188091715569,0.9724944208136104,0.9724944208136104,1.0,label-label,0.424,0.25,0.65,0.1,0.2431236052034026,0.65,0.0424,0.9355236052034026,0.25987971212179345,0.6947980749867624,0.04532221289144419,1,high,,,
56,Cardean,,56.600624,-3.158179,73,98,0.819,4,4,89297,https://pleiades.stoa.org/places/89297,Tameia?,Cardean|Tameia,56.625325,-3.14319,-30.0,300.0,precise,10000.0,2.8957176065606514,0.0,1.0,1.0,0.97,label-alt,0.819,0.25,0.65,0.1,0.25,0.6305,0.0819,0.9623999999999999,0.2597672485453034,0.6551330008312551,0.0850997506234414,1,high,,,
57,Cardiff,,51.483333,-3.183333,53,83,0.668,10,7,79706,https://pleiades.stoa.org/places/79706,Tamion?,Caerdydd|Cardiff|Tamion,51.4817495,-3.1809505,-30.0,640.0,precise,100.0,0.24129243419653454,0.14129243419653453,0.9929602740692062,0.9929602740692062,0.97,label-alt,0.668,0.25,0.65,0.1,0.24824006851730154,0.6305,0.06680000000000001,0.9455400685173014,0.26253786252185596,0.6668146818872362,0.07064745559090785,1,high,,,
58,Carlisle,,54.891,-2.9439,64,91,0.501,13,14,89234,https://pleiades.stoa.org/places/89234,Luguvalium,Luguvalium,54.896035,-2.9376685,-30.0,640.0,precise,10.0,0.6872025855762931,0.6772025855762931,0.9667067091462932,0.3383473482012026,0.15,label-label,0.501,0.25,0.65,0.1,0.08458683705030065,0.0975,0.050100000000000006,0.23218683705030066,0.36430504900661476,0.41992044527002076,0.2157745057233645,1,low,,,
59,Carmarthen,,51.859165,-4.311666,64,91,0.559,10,12,780447856,https://pleiades.stoa.org/places/780447856,Carmarthen,,51.856364,-4.3036461,43.0,410.0,precise,5.0,0.6327377099379479,0.6277377099379479,0.9691005695835904,0.9691005695835904,1.0,label-label,0.559,0.25,0.65,0.1,0.2422751423958976,0.65,0.055900000000000005,0.9481751423958977,0.2555172895417869,0.6855273576963288,0.058955352761884273,1,high,,,
6,Ardoch,,56.267341,-3.876161,138,165,0.75,4,7,89096,https://pleiades.stoa.org/places/89096,Alauna,Alauna|Ardoch|Litana,56.267777921029705,-3.875516376749088,,,precise,20.0,0.06280720425650159,0.042807204256501585,0.9978619287247537,0.9978619287247537,0.97,label-alt,0.0,0.25,0.65,0.1,0.2494654821811884,0.6305,0.0,0.8799654821811884,0.2834946224968202,0.7165053775031797,0.0,1,high,,,
60,Carnuntum,Bad Deutsch Altenburg,48.133335,16.899999,163,196,0.17,40,44,128376,https://pleiades.stoa.org/places/128376,Carnuntum,Carnunto|Carnuntum|Carnvnto,48.113346,16.867891,-30.0,640.0,precise,10.0,3.258859927631017,3.2488599276310173,0.8500645455993336,0.8500645455993336,1.0,label-label,0.17,0.25,0.65,0.1,0.2125161363998334,0.65,0.017,0.8795161363998335,0.24162846775016103,0.7390427225823017,0.019328809667537125,1,high,,,
61,Carrawburgh,,55.035053,-2.222198,143,179,0.279,31,35,89128,https://pleiades.stoa.org/places/89128,*Brocolitia,Brocolitia|Brocolitia Roman fort|Carrawburgh,55.0345957013026,-2.222179461541358,-30.0,640.0,precise,5.0,0.05086308592638662,0.045863085926386625,0.9977094729733654,0.9977094729733654,0.97,label-alt,0.279,0.25,0.65,0.1,0.24942736824334136,0.6305,0.027900000000000005,0.9078273682433413,0.27475198145434504,0.6945153033004792,0.03073271524517585,1,high,,,
62,Carriden,,56.010086,-3.563143,135,180,0.5,0,0,89246,https://pleiades.stoa.org/places/89246,Mumrills,,55.996389,-3.736279,-30.0,300.0,precise,100.0,10.871815328204056,10.771815328204056,0.5835700597088761,0.20424952089810663,0.15,label-label,0.5,0.25,0.65,0.1,0.05106238022452666,0.0975,0.05,0.19856238022452666,0.2571603954726333,0.4910295690943611,0.2518100354330057,1,low,,,
63,Carvoran,Magnis,54.9849,-2.5244,63,88,0.819,4,4,89238,https://pleiades.stoa.org/places/89238,Magnis,Carvoran|Magna|Magnis,54.98482930525684,-2.524275984279248,,,precise,20.0,0.011153590849014725,0.0,1.0,1.0,0.97,label-alt,0.0,0.25,0.65,0.1,0.25,0.6305,0.0,0.8805,0.2839295854628052,0.7160704145371948,0.0,1,high,,,
64,Carzield,,55.112419,-3.630598,141,168,0.56,11,10,109408874,https://pleiades.stoa.org/places/109408874,Carzield,,55.11979,-3.61866,-30.0,300.0,precise,5.0,1.1172020451138076,1.1122020451138077,0.9459078713465264,0.9459078713465264,1.0,label-label,0.56,0.25,0.65,0.1,0.2364769678366316,0.65,0.05600000000000001,0.9424769678366317,0.2509100762212179,0.6896720261419381,0.05941789763684391,1,high,,,
65,Castell Collen,,52.247577,-3.391672,60,90,0.5,0,0,79378,https://pleiades.stoa.org/places/79378,Castell Collen,,52.25582983216876,-3.3841679292132127,-30.0,640.0,precise,20.0,1.0502701899556472,1.0302701899556472,0.949790818678569,0.949790818678569,1.0,label-label,0.5,0.25,0.65,0.1,0.23744770466964224,0.65,0.05,0.9374477046696423,0.2532916806845445,0.6933720107929229,0.05333630852253253,1,high,,,
66,Castlecary,,55.983333,-3.95,135,170,0.32,27,28,89138,https://pleiades.stoa.org/places/89138,Castlecary,,55.98230092221129,-3.940533989296284,,,precise,20.0,0.5999322757441307,0.5799322757441306,0.971419753895034,0.971419753895034,1.0,label-label,0.0,0.25,0.65,0.1,0.2428549384737585,0.65,0.0,0.8928549384737585,0.2719982026295262,0.7280017973704738,0.0,1,high,,,
67,Castledykes,,55.983333,-3.95,121,153,0.179,38,39,89321,https://pleiades.stoa.org/places/89321,Westerwood,,55.97017582839428,-3.9913631212794494,-30.0,300.0,precise,10.0,2.960275466962881,2.9502754669628812,0.8628505538984563,0.3019976938644597,0.15,label-label,0.179,0.25,0.65,0.1,0.07549942346611492,0.0975,0.0179,0.1908994234661149,0.39549319791170684,0.510740149078064,0.09376665301022918,1,low,,,
68,Castleford,,53.71667,-1.35,94,123,0.152,37,38,337037056,https://pleiades.stoa.org/places/337037056,"Roman Bath House, Castleford",,53.7275533,-1.355033,43.0,410.0,precise,20.0,1.254657611678705,1.234657611678705,0.9401339812935933,0.5640803887761561,0.4,label-label,0.152,0.25,0.65,0.1,0.14102009719403902,0.26,0.0152,0.416220097194039,0.33881136001055806,0.6246694999900251,0.036519139999416854,1,medium,,,
69,Castleshaw,,53.583332,-2.003055,80,110,0.5,0,0,79656,https://pleiades.stoa.org/places/79656,Rigodounon?,Castleshaw Roman Fort|Rigodounon|Ῥιγόδουνον,53.58322772685001,-2.0032045483526626,-30.0,300.0,precise,100.0,0.01522794905471467,0.0,1.0,0.6688333333333333,0.46883333333333327,label-alt,0.5,0.25,0.65,0.1,0.16720833333333332,0.30474166666666663,0.05,0.52195,0.3203531628189162,0.5838522208385221,0.09579461634256155,1,medium,,,
7,Arnsburg,,50.487393,8.784294,72,100,0.662,8,9,118575,https://pleiades.stoa.org/places/118575,Arnsburg,,50.48771489393273,8.784437503705496,-30.0,300.0,precise,20.0,0.037205025968531716,0.017205025968531715,0.9991401186116422,0.9991401186116422,1.0,label-label,0.662,0.25,0.65,0.1,0.24978502965291055,0.65,0.06620000000000001,0.9659850296529107,0.2585806425412836,0.6728882747112058,0.0685310827475105,1,high,,,
70,Catterick,,54.37542,-1.63328,115,148,0.126,46,51,89143,https://pleiades.stoa.org/places/89143,Cataractonium,Cataractonium|Catterick,54.38719539682952,-1.6547101467230965,,,precise,100.0,1.9079823729909,1.8079823729909,0.9135664910737546,0.9135664910737546,0.97,label-alt,0.0,0.25,0.65,0.1,0.22839162276843866,0.6305,0.0,0.8588916227684387,0.26591436767338705,0.7340856323266128,0.0,1,high,,,
71,Catterick North,,54.385871,-1.661204,70,100,0.5,0,0,89143,https://pleiades.stoa.org/places/89143,Cataractonium,Cataractonium|Catterick,54.38719539682952,-1.6547101467230965,,,precise,100.0,0.4455230755898754,0.3455230755898754,0.9828722232748777,0.816275381429786,0.6305,label-alt,0.0,0.25,0.65,0.1,0.2040688453574465,0.409825,0.0,0.6138938453574465,0.3324171546932925,0.6675828453067074,0.0,1,medium,,,
72,Charterhouse-on-Mendip,,51.298175,-2.716521,65,90,0.5,0,0,79534,https://pleiades.stoa.org/places/79534,Ischalis?,Charterhouse Roman Town|Ischalis,51.30042082353328,-2.714099249062613,43.0,410.0,precise,20.0,0.30118354058559976,0.28118354058559974,0.9860391916661958,0.5319681439039126,0.33949999999999997,label-alt,0.5,0.25,0.65,0.1,0.13299203597597814,0.22067499999999998,0.05,0.40366703597597814,0.3294597381587839,0.5466758004315521,0.12386446140966402,1,medium,,,
73,Chelmsford,,51.733329,0.483333,60,85,0.5,0,0,79364,https://pleiades.stoa.org/places/79364,Caesaromagus,Caesaromagus,51.735893,0.469629,-30.0,640.0,precise,10.0,0.9858337785924628,0.9758337785924628,0.9523795002294965,0.33333282508032375,0.15,label-label,0.5,0.25,0.65,0.1,0.08333320627008094,0.0975,0.05,0.23083320627008092,0.36101047859023755,0.4223829039827244,0.21660661742703816,1,low,,,
74,Chester,Deva,53.191469,-2.893943,65,92,0.455,15,15,79420,https://pleiades.stoa.org/places/79420,Deva,Deva,53.1914685,-2.8939424999999996,-30.0,640.0,precise,100.0,6.481281008742901e-05,0.0,1.0,1.0,0.97,alt-label,0.455,0.25,0.65,0.1,0.25,0.6305,0.045500000000000006,0.9259999999999999,0.2699784017278618,0.6808855291576674,0.049136069114470854,1,high,,,
75,Chester-le-Street,Cocangis,54.849998,-1.566666,154,194,0.751,5,10,89146,https://pleiades.stoa.org/places/89146,‘Cocanges’/‘Concangios’,Chester-le-Street|Cocanges|Concangios,54.855844,-1.571925,-30.0,640.0,precise,5.0,0.7320437012161688,0.7270437012161688,0.964300621399932,0.964300621399932,0.97,label-alt,0.751,0.25,0.65,0.1,0.241075155349983,0.6305,0.0751,0.946675155349983,0.25465457077603165,0.6660151546566213,0.07933027456734697,1,high,,,
76,Chesterfield,,53.25,-1.416666,65,90,0.5,0,0,79593,https://pleiades.stoa.org/places/79593,Mansfield Woodhouse,,53.169039,-1.18143,-30.0,640.0,precise,10.0,18.06774402346808,18.05774402346808,0.405397504280486,0.1418891264981701,0.15,label-label,0.5,0.25,0.65,0.1,0.03547228162454252,0.0975,0.05,0.18297228162454254,0.1938669688632474,0.5328675968531076,0.2732654342836449,1,low,,,
77,Chesterholm-Vindolanda,,54.991588,-2.359504,116,148,0.13,44,49,89313,https://pleiades.stoa.org/places/89313,Vindolanda,Vindolanda,54.99130261868098,-2.360222233052599,43.0,410.0,precise,20.0,0.055733831711738166,0.03573383171173816,0.9982149035976492,0.8484826680580019,0.65,label-label,0.13,0.25,0.65,0.1,0.21212066701450047,0.42250000000000004,0.013000000000000001,0.6476206670145005,0.3275384462209434,0.6523880745617714,0.02007347921728527,1,medium,,,
78,Chesters,,55.016666,-2.15,152,188,0.436,19,22,89144,https://pleiades.stoa.org/places/89144,Cilurnum,Chesters|Chesters Roman fort|Cilurnum,55.025894330381306,-2.139749505632937,-30.0,640.0,precise,20.0,1.2165232344788228,1.1965232344788228,0.9419282625379876,0.9419282625379876,0.97,label-alt,0.436,0.25,0.65,0.1,0.2354820656344969,0.6305,0.0436,0.9095820656344968,0.2588904009120186,0.6931754965509157,0.047934102537065704,1,high,,,
79,Cirencester,Korinion/Cironium,51.733329,-1.983332,54,82,0.179,33,35,79549,https://pleiades.stoa.org/places/79549,Korinion/Cironium,Cirencester|Cironium|Corinium Dobunnorum|Korinion,51.711380000000005,-1.971806,-30.0,640.0,precise,100.0,2.5665087181689583,2.4665087181689582,0.8839759382329413,0.8839759382329413,0.97,label-alt,0.179,0.25,0.65,0.1,0.22099398455823532,0.6305,0.0179,0.8693939845582352,0.2541931373846909,0.7252178082648865,0.02058905435042263,1,high,,,
8,Arras,Nemetacum,50.283332,2.783333,150,185,0.5,0,0,109194,https://pleiades.stoa.org/places/109194,Nemetacum,Arras|Nemetacum|Nemetocenna,50.2927655,2.778586,-330.0,640.0,precise,10.0,1.1018415056147843,1.0918415056147843,0.9468713214012399,0.9468713214012399,0.97,label-alt,0.5,0.25,0.65,0.1,0.23671783035030997,0.6305,0.05,0.91721783035031,0.2580824560070982,0.6874048662564651,0.054512677736436574,1,high,,,
80,Colchester,,51.883338,0.899999,52,81,0.258,27,28,79393,https://pleiades.stoa.org/places/79393,Col. Camulodunum,Col. Camulodunum|Colchester,51.89007402644582,0.9010877626743472,-30.0,640.0,precise,10.0,0.752731087281795,0.742731087281795,0.9635445501516733,0.9635445501516733,0.97,label-alt,0.258,0.25,0.65,0.1,0.24088613753791832,0.6305,0.025800000000000003,0.8971861375379183,0.2684907038342839,0.7027527216707055,0.028756574495010633,1,high,,,
81,Corbridge,Coriosopitum/Coria,54.97365,-2.01798,118,153,0.171,40,46,89152,https://pleiades.stoa.org/places/89152,*Coriosopitum/Coria,Corbridge|Coria|Coriosopitum|Corstopitum,54.978189383176726,-2.029291531137658,-30.0,640.0,precise,20.0,0.8808380094313234,0.8608380094313234,0.9578712539689348,0.9578712539689348,0.97,label-alt,0.171,0.25,0.65,0.1,0.2394678134922337,0.6305,0.0171,0.8870678134922336,0.2699543483034178,0.7107686587317713,0.01927699296481093,1,high,,,
82,Cramond,,55.966667,-3.299999,138,171,0.351,24,26,89153,https://pleiades.stoa.org/places/89153,Cramond,,55.97766152084004,-3.3001359571886586,,,precise,5.0,1.222566329384922,1.2175663293849222,0.9409377294352527,0.9409377294352527,1.0,label-label,0.0,0.25,0.65,0.1,0.23523443235881317,0.65,0.0,0.8852344323588132,0.2657312275258011,0.734268772474199,0.0,1,high,,,
83,Dol-y-Gaer,,0.0,0.0,70,100,0.5,0,0,354110,https://pleiades.stoa.org/places/354110,Dugial,,26.12117,13.695472,-30.0,640.0,precise,10.0,3254.5324321151506,3254.5224321151504,2.132766571559712e-71,7.464683000458991e-72,0.15,label-label,0.5,0.25,0.65,0.1,1.8661707501147479e-72,0.0975,0.05,0.14750000000000002,1.2652005085523712e-71,0.6610169491525423,0.3389830508474576,1,low,,,
84,Doncaster,,53.533332,-1.116666,69,101,0.559,12,14,79629,https://pleiades.stoa.org/places/79629,Oldcoates,,53.391484,-1.115941,-30.0,640.0,precise,100.0,15.772872762467397,15.672872762467398,0.4567387849157878,0.15985857472052573,0.15,label-label,0.559,0.25,0.65,0.1,0.03996464368013143,0.0975,0.055900000000000005,0.19336464368013145,0.20668020233441398,0.5042286849569402,0.28909111270864574,1,low,,,
85,Donnstetten,,48.51667,9.566666,100,128,0.097,51,43,118632,https://pleiades.stoa.org/places/118632,Clarenna,Clarenna|Donnstetten (Kastel)|Kastell Donnstetten|Kastell Donstetten,48.5098565,9.5694729,-30.0,300.0,precise,20.0,0.7853335518928221,0.765333551892822,0.9624562411493489,0.7993199082745343,0.6305,label-alt,0.097,0.25,0.65,0.1,0.19982997706863356,0.409825,0.0097,0.6193549770686336,0.32264207839971787,0.6616964667655933,0.0156614548346886,1,medium,,,
86,Dormagen,,51.099998,6.833333,68,88,0.779,4,4,108941,https://pleiades.stoa.org/places/108941,Durnomagus,Durnomagus,51.093062,6.842095,-30.0,640.0,precise,10.0,0.9844814579078233,0.9744814579078233,0.9524438985315402,0.33335536448603903,0.15,label-label,0.779,0.25,0.65,0.1,0.08333884112150976,0.0975,0.07790000000000001,0.2587388411215098,0.32209636852463097,0.3768278453184063,0.3010757861569626,1,low,,,
87,Duntocher,,55.933334,-4.416666,143,180,0.754,11,0,89171,https://pleiades.stoa.org/places/89171,Duntocher,,55.92350244580256,-4.409929181382963,,,precise,20.0,1.1710046244809111,1.1510046244809111,0.9440744671792927,0.9440744671792927,1.0,label-label,0.0,0.25,0.65,0.1,0.23601861679482317,0.65,0.0,0.8860186167948232,0.26638110342265914,0.7336188965773409,0.0,1,high,,,
88,Ebchester,,54.883335,-1.833333,95,122,0.037,56,68,89314,https://pleiades.stoa.org/places/89314,Vindomora,Ebchester|Vindomora,54.89416350113713,-1.840140535406297,-30.0,640.0,precise,200.0,1.2803729912713082,1.0803729912713083,0.9474144374712645,0.9474144374712645,0.97,label-alt,0.037,0.25,0.65,0.1,0.23685360936781613,0.6305,0.0037,0.8710536093678161,0.27191622515601216,0.7238360454732488,0.004247729370739129,1,high,,,
89,Echzell,,50.393087,8.883176,83,113,0.224,30,34,118657,https://pleiades.stoa.org/places/118657,Echzell,Echzell,50.391956,8.8840215,-30.0,300.0,precise,10.0,0.13931421746358655,0.12931421746358654,0.993555146857805,0.993555146857805,1.0,label-label,0.224,0.25,0.65,0.1,0.24838878671445125,0.65,0.022400000000000003,0.9207887867144513,0.26975652863969973,0.7059165026534728,0.024326968706827375,1,high,,,
9,Aulnay-de-Saintonge,,46.016666,-0.349999,21,50,0.724,6,7,138200,https://pleiades.stoa.org/places/138200,Au(n)edonnacum,Auedonnacum|Aunedonnacum,46.020807,-0.346927,-30.0,640.0,precise,10.0,0.5179675512773956,0.5079675512773956,0.9749214478244099,0.34122250673854343,0.15,label-label,0.724,0.25,0.65,0.1,0.08530562668463586,0.0975,0.0724,0.25520562668463587,0.33426232717842935,0.3820448681583469,0.2836928046632238,1,low,,,
90,Eining,,48.849998,11.76667,84,113,0.17,37,36,118662,https://pleiades.stoa.org/places/118662,Eining,,48.854695594395444,11.773757130396259,-30.0,300.0,precise,20.0,0.7360255347727334,0.7160255347727333,0.9648320089968216,0.9648320089968216,1.0,label-label,0.17,0.25,0.65,0.1,0.2412080022492054,0.65,0.017,0.9082080022492055,0.2655867396585873,0.7156950812922311,0.01871817904918143,1,high,,,
91,Elginhaugh,,55.893131,-3.080559,64,91,0.738,5,6,217976835,https://pleiades.stoa.org/places/217976835,Elginhaugh Roman fort,,55.89435926624869,-3.0856418209448813,,,precise,20.0,0.34509253595305345,0.32509253595305343,0.9838767667674413,0.6723157906244183,0.4833333333333333,label-label,0.0,0.25,0.65,0.1,0.16807894765610457,0.31416666666666665,0.0,0.48224561432277124,0.34853390609293927,0.6514660939070607,0.0,1,medium,,,
92,Elslack,,53.933334,-2.116666,160,200,0.5,0,0,89260,https://pleiades.stoa.org/places/89260,Elslack Roman Fort,Burwen Castle|Elslack|Olenacum|Olikana,53.940900813053645,-2.1151925960689013,43.0,410.0,precise,20.0,0.846901914908704,0.826901914908704,0.959497954145676,0.959497954145676,0.97,label-alt,0.5,0.25,0.65,0.1,0.239874488536419,0.6305,0.05,0.920374488536419,0.26062705075394665,0.685047236590208,0.05432571265584521,1,high,,,
93,Eschenz,,47.650001,8.866666,155,195,0.576,10,19,187573,https://pleiades.stoa.org/places/187573,Tasg(a)etium,Stein am Rhein|Tasgaetium|Tasgetium,47.6559494,8.8588308,-30.0,640.0,precise,20.0,0.8842640523464116,0.8642640523464116,0.9577071826210617,0.33519751391737157,0.15,label-label,0.576,0.25,0.65,0.1,0.08379937847934289,0.0975,0.0576,0.2388993784793429,0.3507726935613976,0.408121614298928,0.24110569213967437,1,low,,,
94,Faimingen,,48.566669,10.399999,72,100,0.65,7,10,118904,https://pleiades.stoa.org/places/118904,Phoebiana,Phoebiana,48.561582,10.409149,-30.0,300.0,precise,10.0,0.8793852552551533,0.8693852552551533,0.9574619833748107,0.33511169418118375,0.15,label-label,0.65,0.25,0.65,0.1,0.08377792354529594,0.0975,0.065,0.24627792354529593,0.3401763436172846,0.39589419382962926,0.2639294625530862,1,low,,,
95,Falkirk,,56.0,-3.75,110,145,0.5,0,0,89182,https://pleiades.stoa.org/places/89182,Falkirk,,55.999104,-3.784948,-30.0,300.0,precise,10.0,2.1753570550099233,2.1653570550099235,0.897387196607124,0.897387196607124,1.0,label-label,0.5,0.25,0.65,0.1,0.224346799151781,0.65,0.05,0.9243467991517811,0.24270847192595993,0.7031992760687514,0.05409225200528857,1,high,,,
96,Feldberg,,50.227149,8.444662,80,105,0.5,0,0,108979,https://pleiades.stoa.org/places/108979,Feldberg,,50.227142905697136,8.444725208845181,-30.0,300.0,precise,20.0,0.004547237911968284,0.0,1.0,1.0,1.0,label-label,0.5,0.25,0.65,0.1,0.25,0.65,0.05,0.9500000000000001,0.2631578947368421,0.6842105263157895,0.05263157894736842,1,high,,,
97,Fishbourne,,50.839269,-0.810943,48,77,0.595,13,8,79466,https://pleiades.stoa.org/places/79466,Fishbourne,Fishbourne,50.83676530482308,-0.8098534183831175,-30.0,300.0,precise,20.0,0.2887210481194829,0.2687210481194829,0.9866538084376025,0.9866538084376025,1.0,label-label,0.595,0.25,0.65,0.1,0.24666345210940063,0.65,0.0595,0.9561634521094007,0.257972056519452,0.6798000891647021,0.06222785431584581,1,high,,,
98,Fishbourne,,50.839269,-0.810943,45,75,0.601,12,9,79466,https://pleiades.stoa.org/places/79466,Fishbourne,Fishbourne,50.83676530482308,-0.8098534183831175,-30.0,300.0,precise,20.0,0.2887210481194829,0.2687210481194829,0.9866538084376025,0.9866538084376025,1.0,label-label,0.601,0.25,0.65,0.1,0.24666345210940063,0.65,0.0601,0.9567634521094007,0.257810278565277,0.6793737768378678,0.06281594459685516,1,high,,,
99,Friedberg,,50.341669,8.753502,64,91,0.438,15,16,118681,https://pleiades.stoa.org/places/118681,Friedberg,,50.336719,8.753676,-30.0,300.0,precise,10.0,0.5505541517275762,0.5405541517275761,0.9733342724072858,0.9733342724072858,1.0,label-label,0.438,0.25,0.65,0.1,0.24333356810182144,0.65,0.043800000000000006,0.9371335681018216,0.2596572958054393,0.6936044360427565,0.04673826815180421,1,high,,,
