samian_id,samian_label,samian_alt_labels,samian_lat,samian_lon,samian_earliest_year,samian_latest_year,samian_q_interval,samian_unc_start_years,samian_unc_end_years,pleiades_id,pleiades_uri,pleiades_label,pleiades_alt_labels,pleiades_lat,pleiades_lon,pleiades_earliest_year,pleiades_latest_year,pleiades_location_precision,pleiades_max_accuracy_m,distance_km,distance_eff_km,geo_score,string_score,time_score,w_geo,w_str,w_time,geo_contrib,string_contrib,time_contrib,final_score,rank,confidence
1,Aalen,,48.835827,10.085005,143,192,0.397,15,42,118537,https://pleiades.stoa.org/places/118537,Aalen,,48.835778000000005,10.087310500000001,-30.0,300.0,precise,10.0,0.16882917813835738,0.15882917813835737,0.9920899911696369,1.0,0.12752121212121215,0.5,0.3,0.2,0.49604499558481846,0.3,0.02550424242424243,0.8215492380090609,1,high
10,Bad Cannstatt,,48.8048,9.2145,73,102,0.287,24,27,118980,https://pleiades.stoa.org/places/118980,Stuttgart,,48.813333,9.210833,-30.0,300.0,precise,5.0,0.9860954120019928,0.9810954120019928,0.952128979594787,0.15,0.06957575757575757,0.5,0.3,0.2,0.4760644897973935,0.045,0.013915151515151514,0.534979641312545,1,medium
100,Gauting,,48.066669,11.366669,140,180,0.673,11,11,118609,https://pleiades.stoa.org/places/118609,Bratananium,Bratananium|Bratananto,48.066602,11.380178,-30.0,640.0,precise,10.0,1.0038527551791012,0.9938527551791012,0.951521841445038,0.15,0.06227761194029851,0.5,0.3,0.2,0.475760920722519,0.045,0.012455522388059703,0.5332164431105787,1,medium
101,Geislingen,,48.28768,8.81241,75,101,0.191,30,31,118690,https://pleiades.stoa.org/places/118690,Geislingen,,48.274722,8.770833,-30.0,300.0,precise,5.0,3.397284961265944,3.3922849612659443,0.8439903247119703,1.0,0.05035454545454545,0.5,0.3,0.2,0.42199516235598517,0.3,0.01007090909090909,0.7320660714468943,1,medium
102,Gloucester,,51.833328,-2.25,74,103,0.1,44,48,79394,https://pleiades.stoa.org/places/79394,Col. Glevum,Clavinio|Col. Glevum|Gloucester,51.86495646102243,-2.2463302159026965,,,precise,5.0,3.525951306241437,3.5209513062414373,0.8385780951596419,1.0,0.0,0.5,0.3,0.2,0.41928904757982094,0.3,0.0,0.7192890475798209,1,medium
103,Gnotzheim,,49.057194,10.704499,65,90,0.5,0,0,118840,https://pleiades.stoa.org/places/118840,Mediana,Mediana,49.058521,10.709097,-30.0,640.0,precise,10.0,0.36609064147160675,0.35609064147160674,0.9823530321029906,0.15,0.018656716417910446,0.5,0.3,0.2,0.4911765160514953,0.045,0.0037313432835820895,0.5399078593350773,1,medium
104,Gomadingen,,48.4,9.4,113,150,0.188,41,46,118705,https://pleiades.stoa.org/places/118705,Gomadingen,,48.4020185,9.390308000000001,-30.0,300.0,precise,10.0,0.7498787210209045,0.7398787210209045,0.9636819790496651,1.0,0.07064242424242424,0.5,0.3,0.2,0.48184098952483256,0.3,0.014128484848484849,0.7959694743733174,1,high
105,Great Casterton,,52.67045,-0.522659,50,70,0.5,0,0,79487,https://pleiades.stoa.org/places/79487,Great Casterton,,52.670423,-0.522675,-30.0,640.0,precise,10.0,0.0031902257711405885,0.0,1.0,1.0,0.014925373134328358,0.5,0.3,0.2,0.5,0.3,0.0029850746268656717,0.8029850746268657,1,high
106,Great Chesters,,54.993934,-2.462698,148,176,0.756,6,5,89095,https://pleiades.stoa.org/places/89095,(A)Esica,Aesica|Esica|Great Chesters,54.99486700806228,-2.4645070476248407,-30.0,640.0,precise,20.0,0.15517489895470815,0.13517489895470816,0.9932640439984366,1.0,0.04400597014925373,0.5,0.3,0.2,0.4966320219992183,0.3,0.008801194029850747,0.805433216029069,1,high
107,Greta Bridge,,54.513729,-1.869459,163,198,0.742,9,4,496316189,https://pleiades.stoa.org/places/496316189,Greta Bridge,Greta Bridge Roman Fort and Vicus,54.51404118476079,-1.871062901899717,,,precise,5.0,0.10919551176983269,0.10419551176983269,0.9948037717559312,1.0,0.0,0.5,0.3,0.2,0.4974018858779656,0.3,0.0,0.7974018858779656,1,high
108,Günzburg,,48.45,10.26667,66,93,0.523,12,13,118716,https://pleiades.stoa.org/places/118716,Guntia,Guntia,48.454426,10.281491,-30.0,640.0,precise,10.0,1.19872897687355,1.18872897687355,0.9422954156516848,0.15,0.040591044776119405,0.5,0.3,0.2,0.4711477078258424,0.045,0.008118208955223881,0.5242659167810663,1,medium
109,Hadrian Wall General,,55.012296,-2.33773,139,170,0.392,19,22,832240145,https://pleiades.stoa.org/places/832240145,Housesteads Mithraeum,,55.010302,-2.329043,-30.0,300.0,precise,5.0,0.5966208099052606,0.5916208099052606,0.9708521961102422,0.15,0.08552727272727273,0.5,0.3,0.2,0.4854260980551211,0.045,0.017105454545454545,0.5475315526005756,1,medium
11,Bad Nauheim,,50.36463,8.73859,72,97,0.52,12,12,118588,https://pleiades.stoa.org/places/118588,Bad Nauheim,,50.360605,8.735747,-30.0,300.0,precise,10.0,0.49089651551901403,0.480896515519014,0.9762419479742551,1.0,0.07721212121212122,0.5,0.3,0.2,0.48812097398712756,0.3,0.015442424242424244,0.8035633982295518,1,high
110,Haltern,,51.75,7.17,-10,14,0.496,5,16,109029,https://pleiades.stoa.org/places/109029,Haltern,Haltern am See,51.74008305466715,7.169241349973799,-30.0,300.0,precise,20.0,1.1039518371180845,1.0839518371180845,0.9472449201273919,1.0,0.06763636363636363,0.5,0.3,0.2,0.47362246006369596,0.3,0.013527272727272728,0.7871497327909687,1,high
111,Haltonchesters,,55.010543,-2.004059,154,188,0.593,12,14,89201,https://pleiades.stoa.org/places/89201,Onnum,Halton Chesters|Hunno|Onnum,55.0103777063612,-2.0060014009029956,-30.0,640.0,precise,20.0,0.12520822070975998,0.10520822070975998,0.9947534006975659,0.15,0.053104477611940294,0.5,0.3,0.2,0.49737670034878295,0.045,0.01062089552238806,0.552997595871171,1,medium
112,Hanau-Salisberg,,50.133338,8.93,67,96,0.573,11,11,118726,https://pleiades.stoa.org/places/118726,Hanau,,50.132131,8.9052,-30.0,300.0,precise,10.0,1.7727646807327893,1.7627646807327892,0.9156342961498131,0.65,0.08855454545454544,0.5,0.3,0.2,0.45781714807490653,0.195,0.01771090909090909,0.6705280571658156,1,medium
113,Handbridge,,53.183986,-2.88809,70,90,0.5,0,0,989985175,https://pleiades.stoa.org/places/989985175,Roman amphitheater at Deva,,53.1892360611332,-2.8869592857087607,-30.0,300.0,precise,20.0,0.5886222358392467,0.5686222358392466,0.9719692490597435,0.15,0.030303030303030304,0.5,0.3,0.2,0.48598462452987173,0.045,0.0060606060606060615,0.5370452305904778,1,medium
114,Hardknott,,54.402454,-3.204162,100,125,0.5,0,0,89243,https://pleiades.stoa.org/places/89243,‘Medibogdo’,Hardknott Roman Fort|Mediobogdo,54.40269160665815,-3.205357296581622,-30.0,640.0,precise,20.0,0.08175275144700204,0.06175275144700204,0.9969171242783219,0.4833333333333333,0.018656716417910446,0.5,0.3,0.2,0.49845856213916095,0.145,0.0037313432835820895,0.647189905422743,1,medium
115,Haselburg,,49.633402,9.330439,136,166,0.651,11,6,118617,https://pleiades.stoa.org/places/118617,Burgundiones,Burgundiones,49.65566874883174,9.422431704531961,,,precise,1860.0,7.071284909878227,5.211284909878227,0.7706166461386159,0.15,0.0,0.5,0.3,0.2,0.38530832306930796,0.045,0.0,0.43030832306930794,1,low
116,Hayton,,53.901339,-0.753669,58,88,0.689,11,4,89290,https://pleiades.stoa.org/places/89290,Shiptonthorpe,,53.876996,-0.705018,-30.0,640.0,precise,10.0,4.182309056280048,4.1723090562800484,0.8117073153988601,0.15,0.04627611940298507,0.5,0.3,0.2,0.40585365769943005,0.045,0.009255223880597015,0.46010888158002705,1,low
117,Heddernheim,,50.159333,8.646584,68,96,0.316,20,25,109205,https://pleiades.stoa.org/places/109205,Nida,Heddernheim|Nida,50.154109,8.637743,-30.0,300.0,precise,4.2,0.8568149990024851,0.8526149990024852,0.9582651642071293,1.0,0.0699030303030303,0.5,0.3,0.2,0.47913258210356463,0.3,0.013980606060606061,0.7931131881641706,1,high
118,Heddesdorf,,50.436637,7.469069,65,95,0.717,7,7,109035,https://pleiades.stoa.org/places/109035,Heddesdorf,,50.434933,7.467986,-30.0,300.0,precise,100.0,0.2044131031746535,0.1044131031746535,0.9947929487772951,1.0,0.09559999999999999,0.5,0.3,0.2,0.49739647438864754,0.3,0.019119999999999998,0.8165164743886475,1,high
119,Heidelberg,,49.416671,8.699999,76,102,0.253,24,26,118731,https://pleiades.stoa.org/places/118731,Roman Heidelberg,Heidelberg,49.413509,8.681124,-30.0,300.0,precise,10.0,1.4099717557157647,1.3999717557157647,0.9323951366466814,1.0,0.05826666666666667,0.5,0.3,0.2,0.4661975683233407,0.3,0.011653333333333335,0.7778509016566739,1,high
12,Bad Wimpfen,Vicus Alisinensium,49.227218,9.159722,143,177,0.371,22,26,119024,https://pleiades.stoa.org/places/119024,Vicus Alisinensium,Vicus Alisinensium,49.231140499999995,9.168957500000001,-30.0,300.0,precise,10.0,0.7999883715512484,0.7899883715512483,0.9612705128946806,1.0,0.09218787878787878,0.5,0.3,0.2,0.4806352564473403,0.3,0.018437575757575757,0.799072832204916,1,high
120,Heidenheim,,48.676111,10.154444,118,154,0.173,41,47,118569,https://pleiades.stoa.org/places/118569,Aquileia,Aquileia|Aqvileia,48.678383,10.151322,-30.0,640.0,precise,10.0,0.3411277082728698,0.3311277082728698,0.983579918266545,0.15,0.03201791044776119,0.5,0.3,0.2,0.4917899591332725,0.045,0.0064035820895522386,0.5431935412228248,1,medium
121,Heilbronn-Böckingen,,49.133888,9.188611,76,109,0.589,9,14,118734,https://pleiades.stoa.org/places/118734,Heilbronn,,49.1441116,9.2107124,-30.0,300.0,precise,10.0,1.9691068400420544,1.9591068400420544,0.9066893937828534,0.65,0.09995151515151515,0.5,0.3,0.2,0.4533446968914267,0.195,0.019990303030303032,0.6683349999217297,1,medium
122,Heldenbergen,,50.233333,8.866666,72,102,0.41,19,19,118873,https://pleiades.stoa.org/places/118873,Nidderau,,50.23681,8.870497,-30.0,300.0,precise,10.0,0.47299457169847337,0.46299457169847336,0.9771161705983884,0.15,0.08448484848484848,0.5,0.3,0.2,0.4885580852991942,0.045,0.0168969696969697,0.550455054996164,1,medium
123,Helsoven,,50.816667,5.266667,130,160,0.568,13,11,108806,https://pleiades.stoa.org/places/108806,Bergilers,,50.715456,5.328087,-30.0,640.0,precise,10.0,12.054688765350498,12.044688765350498,0.5475867193827004,0.15,0.04577910447761194,0.5,0.3,0.2,0.2737933596913502,0.045,0.009155820895522387,0.3279491805868726,1,low
124,Heronbridge,,53.160568,-2.882517,75,100,0.5,0,0,79509,https://pleiades.stoa.org/places/79509,Heronbridge,,53.16896410037127,-2.8833185879432355,-30.0,640.0,precise,100.0,0.9351330653252752,0.8351330653252752,0.9591031467949677,1.0,0.018656716417910446,0.5,0.3,0.2,0.47955157339748383,0.3,0.0037313432835820895,0.7832829166810659,1,high
125,Hesselbach,,49.575828,9.088055,145,170,0.5,0,0,118741,https://pleiades.stoa.org/places/118741,Hesselbach,,49.575377,9.0900895,-30.0,300.0,precise,10.0,0.15503030001182805,0.14503030001182804,0.9927747137965119,1.0,0.03787878787878788,0.5,0.3,0.2,0.49638735689825597,0.3,0.007575757575757576,0.8039631144740136,1,high
126,Hod Hill,,50.900001,-2.2,29,64,0.687,9,10,42178780,https://pleiades.stoa.org/places/42178780,Hod Hill,Hod Hill,50.895753275201464,-2.2065415396585237,43.0,410.0,precise,20.0,0.6584515743327715,0.6384515743327714,0.968581568004442,1.0,0.0580299727520436,0.5,0.3,0.2,0.484290784002221,0.3,0.01160599455040872,0.7958967785526296,1,high
127,Hofheim,,50.083332,8.449999,53,80,0.426,16,17,109047,https://pleiades.stoa.org/places/109047,Hofheim,,50.080772,8.450889,-30.0,300.0,precise,4.2,0.2916568698762868,0.2874568698762868,0.9857299527405292,1.0,0.07745454545454546,0.5,0.3,0.2,0.4928649763702646,0.3,0.015490909090909092,0.8083558854611738,1,high
128,Holt,,53.079,-2.881,70,97,0.557,10,13,821460578,https://pleiades.stoa.org/places/821460578,Unnamed Roman Villa,,53.0853056,-2.888443,43.0,410.0,precise,20.0,0.8595061703322995,0.8395061703322995,0.9588934567820391,0.15,0.07588555858310628,0.5,0.3,0.2,0.47944672839101954,0.045,0.015177111716621255,0.5396238401076409,1,medium
129,Holzhausen,,50.214881,7.947468,179,234,0.663,14,18,109050,https://pleiades.stoa.org/places/109050,Holzhausen,,50.2149683,7.9480079,-30.0,300.0,precise,20.0,0.03962395340988967,0.019623953409889667,0.9990192835465372,1.0,0.17479090909090908,0.5,0.3,0.2,0.4995096417732686,0.3,0.03495818181818182,0.8344678235914503,1,high
13,Baden-Baden,Aquae,48.7598,8.239792,68,94,0.545,9,13,108748,https://pleiades.stoa.org/places/108748,Aquae,Aquae,48.759799,8.239789,-30.0,300.0,precise,10.0,0.0002464195883913214,0.0,1.0,1.0,0.07927272727272727,0.5,0.3,0.2,0.5,0.3,0.015854545454545454,0.8158545454545455,1,high
130,Housesteads,,55.016666,-2.333333,161,195,0.529,15,16,89311,https://pleiades.stoa.org/places/89311,*Vercovicium,Housesteads|Housesteads Roman fort|Vercouicium,55.01331059875913,-2.3302702102961725,,,precise,20.0,0.42111327200548104,0.401113272005481,0.9801441134381287,1.0,0.0,0.5,0.3,0.2,0.49007205671906434,0.3,0.0,0.7900720567190643,1,high
131,Hüfingen,,47.916671,8.483333,56,82,0.5,15,10,187326,https://pleiades.stoa.org/places/187326,*Brigobannis,Brigobannis,47.919511107105414,8.480043796098752,,,precise,20.0,0.3997704229094601,0.37977042290946006,0.9811906251226125,0.15,0.0,0.5,0.3,0.2,0.49059531256130623,0.045,0.0,0.5355953125613062,1,medium
132,Ilkley,,53.916667,-1.816666,131,161,0.13,41,45,89205,https://pleiades.stoa.org/places/89205,Ilkley (Verbeia?),,53.92665545004785,-1.824171675856724,,,precise,5.0,1.2145523822008335,1.2095523822008336,0.9413148362464193,0.65,0.0,0.5,0.3,0.2,0.47065741812320966,0.195,0.0,0.6656574181232097,1,medium
133,Inchtuthil,,56.541347,-3.422952,64,94,0.692,5,10,89206,https://pleiades.stoa.org/places/89206,Victoria?,,56.5334205,-3.4115965,-30.0,300.0,precise,10000.0,1.1232012574573869,0.0,1.0,0.15,0.09436363636363634,0.5,0.3,0.2,0.5,0.045,0.01887272727272727,0.5638727272727273,1,medium
134,Inveravon,,52.867542,0.491559,155,185,0.5,0,0,487909247,https://pleiades.stoa.org/places/487909247,Snettisham,,52.8763478,0.5018936,2000.0,2099.0,precise,20.0,1.1999495679359273,1.1799495679359273,0.942709146292506,0.15,0.0,0.5,0.3,0.2,0.471354573146253,0.045,0.0,0.516354573146253,1,medium
135,Inveresk,,55.936565,-3.056639,133,164,0.618,9,12,89207,https://pleiades.stoa.org/places/89207,Inveresk,,55.93716209466626,-3.054622908248247,,,precise,5.0,0.1420371609457881,0.1370371609457881,0.9931715624103148,1.0,0.0,0.5,0.3,0.2,0.4965857812051574,0.3,0.0,0.7965857812051573,1,high
136,Iža,,47.75,18.233333,156,186,0.72,5,8,197337,https://pleiades.stoa.org/places/197337,Kelamantia,Iža-Leányvár|Kastell Iža-Leányvár|Kelamantia,47.74477729151584,18.198882858730624,,,precise,20.0,2.6404118254154922,2.6204118254154922,0.8771997115482919,0.0,0.0,0.5,0.3,0.2,0.43859985577414595,0.0,0.0,0.43859985577414595,1,low
137,Jagsthausen,,49.310942,9.469169,151,189,0.484,14,24,118769,https://pleiades.stoa.org/places/118769,Jagsthausen,,49.3107445,9.469357500000001,-30.0,300.0,precise,10.0,0.025865482130369738,0.015865482130369736,0.999207040452203,1.0,0.11146666666666667,0.5,0.3,0.2,0.4996035202261015,0.3,0.022293333333333335,0.8218968535594349,1,high
138,Kapersburg,,50.313041,8.635664,40,65,0.5,0,0,109074,https://pleiades.stoa.org/places/109074,Kapersburg,Kapersburg|Kastell Kapersburg,50.31301504808457,8.635684199754634,,,precise,20.0,0.0032225418627441745,0.0,1.0,1.0,0.0,0.5,0.3,0.2,0.5,0.3,0.0,0.8,1,high
139,Kempten,,47.72674,10.31389,153,189,0.666,8,12,187335,https://pleiades.stoa.org/places/187335,Cambodunum (Raetia),Cambodunum|Cambodvno|Kempten,47.727498,10.326578,-330.0,640.0,precise,10.0,0.9527566083788414,0.9427566083788413,0.9539559043867437,1.0,0.038449484536082476,0.5,0.3,0.2,0.47697795219337186,0.3,0.007689896907216495,0.7846678491005883,1,high
14,Bagendon,,51.753227,-1.976233,15,35,0.5,0,0,79319,https://pleiades.stoa.org/places/79319,Barton Farm,,51.723317,-2.028822,-30.0,640.0,precise,10000.0,4.916723145987709,0.0,1.0,0.15,0.014925373134328358,0.5,0.3,0.2,0.5,0.045,0.0029850746268656717,0.5479850746268657,1,medium
140,Komárom,,47.733333,18.166666,156,194,0.471,14,25,197180,https://pleiades.stoa.org/places/197180,Brigetio,Brigetio,47.735239,18.169507,-30.0,640.0,precise,10.0,0.30010068972609283,0.2901006897260928,0.9855996567319182,0.15,0.05412985074626865,0.5,0.3,0.2,0.4927998283659591,0.045,0.010825970149253732,0.5486257985152128,1,medium
141,Köngen,Grinario,48.683334,9.366666,147,187,0.308,30,37,118706,https://pleiades.stoa.org/places/118706,*Grinario,Grinario|Grinarione,48.67726312416167,9.360161772911495,-30.0,300.0,precise,20.0,0.8268765359533831,0.806876535953383,0.9604591507804755,1.0,0.09986666666666666,0.5,0.3,0.2,0.48022957539023775,0.3,0.019973333333333333,0.800202908723571,1,high
142,Kösching,,48.816665,11.5,50,80,0.427,21,14,118697,https://pleiades.stoa.org/places/118697,Germanicum,Germanico|Germanicum,48.810891,11.499781,-30.0,300.0,precise,10.0,0.642240620015531,0.6322406200155309,0.9688824055077938,0.15,0.0841060606060606,0.5,0.3,0.2,0.4844412027538969,0.045,0.016821212121212122,0.5462624148751091,1,medium
143,Künzing,,48.666671,13.08333,140,172,0.051,64,71,118919,https://pleiades.stoa.org/places/118919,Quintana,Castra Quintana|Kastell Kunzing|Kastell Künzing|Kunzing|Künzing|Quintana|Quintanis,48.668964,13.079326,-30.0,640.0,precise,10.0,0.38918851751846306,0.37918851751846305,0.9812191735436402,1.0,0.012711940298507462,0.5,0.3,0.2,0.4906095867718201,0.3,0.0025423880597014925,0.7931519748315217,1,high
144,La Graufesenque,Condatomagus,44.099998,3.083333,32,60,0.555,12,11,246353,https://pleiades.stoa.org/places/246353,Condatomagus?,,44.101721,3.088891,-30.0,640.0,precise,100.0,0.48339953762111354,0.38339953762111356,0.9810125986084385,1.0,0.04224626865671642,0.5,0.3,0.2,0.49050629930421924,0.3,0.008449253731343285,0.7989555530355625,1,high
145,Ladenburg,,49.474998,8.606944,55,78,0.456,14,11,118813,https://pleiades.stoa.org/places/118813,Lopodunum,Ladenburg|Lopodunum,49.47416,8.614162,-30.0,640.0,precise,10.0,0.5297807642945231,0.5197807642945231,0.974345770119325,1.0,0.032668656716417915,0.5,0.3,0.2,0.4871728850596625,0.3,0.006533731343283583,0.793706616402946,1,high
146,Langenhain,,50.365103,8.644794,200,243,0.889,0,5,109100,https://pleiades.stoa.org/places/109100,Langenhain,,50.365244,8.636999,-30.0,300.0,precise,10.0,0.5531253140897466,0.5431253140897466,0.97320915042783,1.0,0.1293090909090909,0.5,0.3,0.2,0.486604575213915,0.3,0.02586181818181818,0.8124663933957332,1,high
147,Lincoln,Colonia Lindum,53.233333,-0.533333,40,70,0.717,7,7,79395,https://pleiades.stoa.org/places/79395,Col. Lindum,Col. Lindum,53.2348205,-0.5384420000000001,-30.0,640.0,precise,10.0,0.37812680043102276,0.36812680043102275,0.981762022095655,0.4833333333333333,0.047086567164179104,0.5,0.3,0.2,0.4908810110478275,0.145,0.009417313432835821,0.6452983244806633,1,medium
148,Little Chester,Derventio,52.933414,-1.471779,45,70,0.5,0,0,79419,https://pleiades.stoa.org/places/79419,Derbentio,Derbentio,52.93687,-1.47618,300.0,640.0,precise,100.0,0.48443341891899694,0.38443341891899696,0.9809618873902498,0.15,0.0,0.5,0.3,0.2,0.4904809436951249,0.045,0.0,0.5354809436951249,1,medium
149,London,Londinium,51.51279,-0.09184,123,155,0.323,23,28,79574,https://pleiades.stoa.org/places/79574,Londinium/Augusta,Augusta|Londinium|London|Londra,51.513335,-0.088949,-30.0,640.0,precise,10.0,0.20903645624086725,0.19903645624086724,0.9900975327150868,1.0,0.0400134328358209,0.5,0.3,0.2,0.4950487663575434,0.3,0.00800268656716418,0.8030514529247076,1,high
15,Baginton,,52.366664,-1.483333,45,74,0.625,10,9,878157790,https://pleiades.stoa.org/places/878157790,Lunt Roman fort,,52.37312026498862,-1.4956240970818249,,,precise,20.0,1.1007774989089798,1.0807774989089798,0.947395275846241,0.15,0.0,0.5,0.3,0.2,0.4736976379231205,0.045,0.0,0.5186976379231205,1,medium
150,London,Londinium,51.51279,-0.09184,99,129,0.118,44,47,79574,https://pleiades.stoa.org/places/79574,Londinium/Augusta,Augusta|Londinium|London|Londra,51.513335,-0.088949,-30.0,640.0,precise,10.0,0.20903645624086725,0.19903645624086724,0.9900975327150868,1.0,0.021310447761194028,0.5,0.3,0.2,0.4950487663575434,0.3,0.004262089552238806,0.7993108559097822,1,high
151,Lorch,,48.798115,9.688578,165,200,0.575,9,17,118814,https://pleiades.stoa.org/places/118814,Lorch,,48.798141,9.6896755,-30.0,300.0,precise,10.0,0.08043919348305945,0.07043919348305945,0.9964842351510447,1.0,0.10628787878787878,0.5,0.3,0.2,0.49824211757552234,0.3,0.021257575757575756,0.8194996933330981,1,high
152,Loudoun Hill,,55.607688,-4.213332,68,88,0.779,4,4,264399135,https://pleiades.stoa.org/places/264399135,Loudoun Hill,,55.60925,-4.21613,43.0,410.0,precise,10.0,0.24708395648147938,0.23708395648147937,0.988215786370497,1.0,0.05943324250681199,0.5,0.3,0.2,0.4941078931852485,0.3,0.0118866485013624,0.805994541686611,1,high
153,Loughor,,51.666671,-4.05,56,82,0.662,9,6,79561,https://pleiades.stoa.org/places/79561,‘Leucaro’,Leucaro|Loughor,51.66223257233418,-4.078313978342256,,,precise,20.0,2.0142283700790444,1.9942283700790444,0.9050985750524653,1.0,0.0,0.5,0.3,0.2,0.45254928752623264,0.3,0.0,0.7525492875262326,1,high
154,Mainhardt,,49.081095,9.556183,146,176,0.615,10,10,118829,https://pleiades.stoa.org/places/118829,Mainhardt,,49.078429799999995,9.55580365,-30.0,300.0,precise,10.0,0.2976422907354865,0.28764229073548647,0.9857208140381531,1.0,0.09318181818181819,0.5,0.3,0.2,0.4928604070190766,0.3,0.01863636363636364,0.8114967706554402,1,high
155,Malton,,54.133335,-0.8,125,158,0.145,44,47,89166,https://pleiades.stoa.org/places/89166,Derventio,Derventio,54.1344542,-0.78916895,-30.0,640.0,precise,20.0,0.7165162448213463,0.6965162448213463,0.9657736275507864,0.15,0.026835820895522385,0.5,0.3,0.2,0.4828868137753932,0.045,0.0053671641791044776,0.5332539779544977,1,medium
156,Manchester,,53.48095,-2.23743,81,108,0.16,34,37,79590,https://pleiades.stoa.org/places/79590,‘Mamucio’,Mamucio,53.47529334543511,-2.254277076204691,-30.0,640.0,precise,20.0,1.2800593562362401,1.26005935623624,0.9389406870857363,0.15,0.02340298507462687,0.5,0.3,0.2,0.46947034354286815,0.045,0.004680597014925374,0.5191509405577935,1,medium
157,Marköbel,,50.2167,8.9833,72,100,0.713,8,6,118834,https://pleiades.stoa.org/places/118834,Marköbel,,50.222246999999996,8.9847505,-30.0,300.0,precise,10.0,0.6253730254644007,0.6153730254644006,0.9696998859617512,1.0,0.09074545454545453,0.5,0.3,0.2,0.4848499429808756,0.3,0.018149090909090906,0.8029990338899664,1,high
158,Miltenberg,,49.703891,9.264444,144,180,0.448,14,25,118846,https://pleiades.stoa.org/places/118846,Miltenberg-Ost,,49.703238,9.257068,-30.0,300.0,precise,10.0,0.5353884642226322,0.5253884642226322,0.974072616479953,0.65,0.10181818181818182,0.5,0.3,0.2,0.4870363082399765,0.195,0.020363636363636365,0.7023999446036129,1,medium
159,Mumrills,,55.991607,-3.747586,140,171,0.693,8,8,89246,https://pleiades.stoa.org/places/89246,Mumrills,,55.996389,-3.736279,-30.0,300.0,precise,100.0,0.8815860391323267,0.7815860391323267,0.9616744434574034,1.0,0.0987,0.5,0.3,0.2,0.4808372217287017,0.3,0.01974,0.8005772217287016,1,high
16,Bainbridge,,54.299999,-2.099999,148,185,0.32,28,32,89317,https://pleiades.stoa.org/places/89317,Virosidum,Bainbridge|Brough by Bainbridge|Brough-by-Bainbridge|Virosidum,54.306875123717795,-2.097911343621413,,,precise,5.0,0.7764962126817503,0.7714962126817503,0.9621597222684076,1.0,0.0,0.5,0.3,0.2,0.4810798611342038,0.3,0.0,0.7810798611342038,1,high
160,Munningen,,48.916667,10.6,58,85,0.458,15,15,118815,https://pleiades.stoa.org/places/118815,Losodica,Losodica,48.921544,10.602346,-30.0,300.0,precise,10.0,0.5687462465050585,0.5587462465050584,0.9724493254775717,0.15,0.0791090909090909,0.5,0.3,0.2,0.48622466273878584,0.045,0.015821818181818183,0.547046480920604,1,medium
161,Murrhardt,,48.977053,9.582358,144,182,0.502,13,23,118854,https://pleiades.stoa.org/places/118854,Murrhardt,,48.978564,9.581847,-30.0,300.0,precise,10.0,0.1721050981040102,0.1621050981040102,0.9919275041068757,1.0,0.11256969696969697,0.5,0.3,0.2,0.49596375205343785,0.3,0.022513939393939395,0.8184776914473773,1,high
162,Narbonne,Colonia Narbo Martius,43.18333,3.0,39,66,0.562,12,10,246347,https://pleiades.stoa.org/places/246347,Col. Narbo Martius,Col. Iulia Paterna Claudia|Col. Narbo Martius|Narbon|Narbonne|Nárbōn|colonia Narbo Martius|Νάρβων (ἡ),43.1836165,3.004203,-750.0,640.0,precise,10.0,0.3422637292638881,0.3322637292638881,0.9835240514815313,1.0,0.019811510791366907,0.5,0.3,0.2,0.49176202574076566,0.3,0.003962302158273381,0.795724327899039,1,high
163,Neckarburken,,49.378059,9.169166,95,122,0.072,51,49,118862,https://pleiades.stoa.org/places/118862,Neckarburken,,49.3767085,9.1702634,-30.0,300.0,precise,20.0,0.16989007280360882,0.14989007280360883,0.9925335101254509,1.0,0.027709090909090905,0.5,0.3,0.2,0.49626675506272544,0.3,0.005541818181818182,0.8018085732445436,1,high
164,Nether Denton,,54.972457,-2.640561,85,115,0.221,28,35,24547397,https://pleiades.stoa.org/places/24547397,Nether Denton Roman fort,,54.974142989606236,-2.6336520253867097,,,precise,20.0,0.4791391932595311,0.45913919325953106,0.9773045463851271,0.65,0.0,0.5,0.3,0.2,0.48865227319256355,0.195,0.0,0.6836522731925636,1,medium
165,Neuss,,51.19807,6.68504,55,83,0.168,35,35,109215,https://pleiades.stoa.org/places/109215,Novaesium,Neuss|Novaesium,51.183889,6.721944,-30.0,640.0,precise,10.0,3.01672515311224,3.00672515311224,0.8604186054330708,1.0,0.024573134328358212,0.5,0.3,0.2,0.4302093027165354,0.3,0.004914626865671643,0.7351239295822071,1,medium
166,Newcastle,Pons Aelius,54.988056,-1.619444,145,175,0.5,0,0,89275,https://pleiades.stoa.org/places/89275,Pons Aeli,Newcastle upon Tyne|Pons Aeli|Pons Aelii|Pons Aelius,54.968831,-1.610077,-30.0,640.0,precise,5.0,2.2197207714469673,2.2147207714469674,0.8951750094193154,1.0,0.022388059701492536,0.5,0.3,0.2,0.4475875047096577,0.3,0.004477611940298508,0.7520651166499561,1,high
167,Newcastle,Pons Aelius,54.988056,-1.619444,139,170,0.12,46,48,89275,https://pleiades.stoa.org/places/89275,Pons Aeli,Newcastle upon Tyne|Pons Aeli|Pons Aelii|Pons Aelius,54.968831,-1.610077,-30.0,640.0,precise,5.0,2.2197207714469673,2.2147207714469674,0.8951750094193154,1.0,0.02238805970149254,0.5,0.3,0.2,0.4475875047096577,0.3,0.004477611940298508,0.7520651166499561,1,high
168,Newstead,,55.598,-2.6919,118,148,0.177,36,38,89304,https://pleiades.stoa.org/places/89304,Trimontium,Newstead|Trimontium,55.59984202419065,-2.691217786987885,,,precise,20.0,0.2092600393223224,0.1892600393223224,0.9905816313376887,1.0,0.0,0.5,0.3,0.2,0.49529081566884436,0.3,0.0,0.7952908156688443,1,high
169,Niederbieber,,50.467026,7.471947,178,232,0.617,18,18,109208,https://pleiades.stoa.org/places/109208,Niederbieber,,50.467025,7.471947,-30.0,300.0,precise,10.0,0.00011119507996587456,0.0,1.0,1.0,0.16827272727272727,0.5,0.3,0.2,0.5,0.3,0.03365454545454546,0.8336545454545455,1,high
17,Balmuildy,,55.917377,-4.270652,140,173,0.738,7,7,89108,https://pleiades.stoa.org/places/89108,Balmuildy Roman Fort,,55.917308,-4.271934,43.0,410.0,precise,2000.0,0.08025213162687551,0.0,1.0,0.4833333333333333,0.09451226158038148,0.5,0.3,0.2,0.5,0.145,0.018902452316076297,0.6639024523160764,1,medium
170,Nijmegen,Ulpia Noviomagus,51.833328,5.866666,62,90,0.415,17,17,98921,https://pleiades.stoa.org/places/98921,Batavodurum/(Ulpia) Noviomagus,Batavi|Batavodurum|Nijmegen|Noviomagus|Ulpia Noviomagus,51.84167,5.858672,-30.0,640.0,precise,10.0,1.078002163110345,1.068002163110345,0.9480006338060868,1.0,0.03840298507462686,0.5,0.3,0.2,0.4740003169030434,0.3,0.0076805970149253725,0.7816809139179688,1,high
171,Northwich,,53.26667,-2.5,65,90,0.5,0,0,79400,https://pleiades.stoa.org/places/79400,Condate,Condate,53.259423,-2.517363,-30.0,640.0,precise,100.0,1.4081814865035376,1.3081814865035375,0.9366842115317667,0.15,0.018656716417910446,0.5,0.3,0.2,0.46834210576588337,0.045,0.0037313432835820895,0.5170734490494654,1,medium
172,Oberflorstadt,,50.333332,8.866666,73,106,0.703,8,9,118887,https://pleiades.stoa.org/places/118887,Oberflorstadt,,50.3250575,8.876639,-30.0,300.0,precise,10.0,1.1609103818542383,1.1509103818542383,0.944078915792652,1.0,0.10651515151515151,0.5,0.3,0.2,0.472039457896326,0.3,0.021303030303030303,0.7933424881993563,1,high
173,Oberstimm,,48.71667,11.449999,60,87,0.503,12,14,118891,https://pleiades.stoa.org/places/118891,Oberstimm,,48.712913,11.455793,-30.0,300.0,precise,10.0,0.596007815735048,0.586007815735048,0.9711247037338914,1.0,0.08078484848484849,0.5,0.3,0.2,0.4855623518669457,0.3,0.016156969696969697,0.8017193215639153,1,high
174,Oberwinterthur,,47.299999,8.439999,47,72,0.623,10,8,187600,https://pleiades.stoa.org/places/187600,Üetliberg,,47.34937,8.483694700000001,-30.0,640.0,precise,10.0,6.401950010076892,6.391950010076892,0.7264413705233332,0.15,0.03998358208955224,0.5,0.3,0.2,0.3632206852616666,0.045,0.007996716417910449,0.41621740167957705,1,low
175,Öhringen,,49.201698,9.503899,147,181,0.43,19,22,119026,https://pleiades.stoa.org/places/119026,*Vicus Aurelianus,Vicus Aurelianus,49.203802499999995,9.5004755,-30.0,300.0,precise,10.0,0.34150591669245783,0.3315059166924578,0.9835613185320886,0.15,0.09772727272727272,0.5,0.3,0.2,0.4917806592660443,0.045,0.019545454545454546,0.5563261138114989,1,medium
176,Okarben,,50.25,8.75,72,99,0.504,12,14,118777,https://pleiades.stoa.org/places/118777,Karben,,50.240281499999995,8.763929999999998,-30.0,640.0,precise,10.0,1.4659498846339107,1.4559498846339107,0.9297890986181881,0.15,0.039868656716417906,0.5,0.3,0.2,0.4648945493090941,0.045,0.007973731343283582,0.5178682806523777,1,medium
177,Old Carlisle,,54.807262,-3.151907,160,210,0.5,0,0,89236,https://pleiades.stoa.org/places/89236,‘Maglone’,Maglona|Maglone|Old Carlisle,54.807411499930524,-3.153217550609552,-30.0,640.0,precise,5.0,0.08561575440621913,0.08061575440621913,0.9959773250006331,1.0,0.03731343283582089,0.5,0.3,0.2,0.49798866250031654,0.3,0.007462686567164179,0.8054513490674807,1,high
178,Old Kilpatrick,,55.916667,-4.449999,147,171,0.719,4,7,89259,https://pleiades.stoa.org/places/89259,Old Kilpatrick,,55.924016,-4.456676,-30.0,300.0,precise,10.0,0.916978910695157,0.906978910695157,0.9556639489763593,1.0,0.07625757575757576,0.5,0.3,0.2,0.47783197448817966,0.3,0.015251515151515153,0.7930834896396948,1,high
179,Old Penrith,,54.734279,-2.792124,114,148,0.152,44,47,89318,https://pleiades.stoa.org/places/89318,Voreda,Old Penrith|Voreda,54.73848843605398,-2.7883347544612236,43.0,410.0,precise,20.0,0.527506652588306,0.507506652588306,0.9749439150841506,1.0,0.05177111716621253,0.5,0.3,0.2,0.4874719575420753,0.3,0.010354223433242507,0.7978261809753178,1,high
18,Bar Hill,,55.958923,-4.07087,136,168,0.758,6,7,151622036,https://pleiades.stoa.org/places/151622036,Bar Hill Fort Bathhouse,Fort Bathhouse,55.9591362,-4.0725576,43.0,410.0,precise,20.0,0.10768721195422848,0.08768721195422848,0.9956252366801153,0.65,0.09294277929155315,0.5,0.3,0.2,0.49781261834005763,0.195,0.01858855585831063,0.7114011741983682,1,medium
180,Osijek,,45.55111,18.69389,149,181,0.441,18,20,197389,https://pleiades.stoa.org/places/197389,Mursa,Mursa|Mursa maior|Mvrsa maior|Osijek,45.560018,18.675749,-30.0,640.0,precise,10.0,1.7251713344899353,1.7151713344899353,0.9178157957464258,1.0,0.04607462686567164,0.5,0.3,0.2,0.4589078978732129,0.3,0.009214925373134328,0.7681228232463472,1,high
181,Osterburken,,49.430561,9.423889,149,185,0.479,17,21,118898,https://pleiades.stoa.org/places/118898,Osterburken,,49.42553033217792,9.427510520716453,-30.0,300.0,precise,20.0,0.6176658498446739,0.5976658498446739,0.9705587984374544,1.0,0.10741212121212121,0.5,0.3,0.2,0.4852793992187272,0.3,0.021482424242424244,0.8067618234611514,1,high
182,Papcastle,,54.670497,-3.380827,170,200,0.5,0,0,89165,https://pleiades.stoa.org/places/89165,Derventio,Deruentio|Derventio|Papcastle,54.670589,-3.38215,-30.0,640.0,precise,5.0,0.08568385898262126,0.08068385898262126,0.9959739334757163,1.0,0.022388059701492536,0.5,0.3,0.2,0.49798696673785814,0.3,0.004477611940298508,0.8024645786781566,1,high
183,Pen Llystyn,,52.9837,-4.2697,60,90,0.5,0,0,842094503,https://pleiades.stoa.org/places/842094503,Pen Llystyn,,52.9804844,-4.2642154,-30.0,300.0,precise,20.0,0.5125096817840215,0.49250968178402144,0.975675249516428,1.0,0.045454545454545456,0.5,0.3,0.2,0.487837624758214,0.3,0.009090909090909092,0.796928533849123,1,high
184,Penydarren,,51.7581,-3.3705,70,95,0.5,0,0,100271079,https://pleiades.stoa.org/places/100271079,Penydarren Roman fort,,51.7517844,-3.3778152,43.0,410.0,precise,20.0,0.8641246398471352,0.8441246398471351,0.9586720513369743,0.4833333333333333,0.0340599455040872,0.5,0.3,0.2,0.47933602566848715,0.145,0.0068119891008174395,0.6311480147693046,1,medium
185,Pforzheim,,48.883335,8.699999,90,125,0.5,0,0,118912,https://pleiades.stoa.org/places/118912,*Portus,Portus,48.893378,8.70439,-30.0,300.0,precise,10.0,1.1619636547139587,1.1519636547139587,0.9440291984668393,0.15,0.05303030303030303,0.5,0.3,0.2,0.47201459923341965,0.045,0.010606060606060607,0.5276206598394803,1,medium
186,Pfünz,,48.883931,11.263661,71,106,0.174,42,45,119020,https://pleiades.stoa.org/places/119020,Vetoniana,Vetoniana,48.884011934232454,11.263551301698003,-30.0,300.0,precise,20.0,0.012055291794674895,0.0,1.0,0.15,0.06432727272727272,0.5,0.3,0.2,0.5,0.045,0.012865454545454545,0.5578654545454546,1,medium
187,Piercebridge,,54.533332,-1.683333,158,201,0.727,5,13,89274,https://pleiades.stoa.org/places/89274,Piercebridge,,54.53656131659249,-1.6767892769362074,-30.0,640.0,precise,20.0,0.5542323214694366,0.5342323214694366,0.9736419837399235,1.0,0.06618955223880596,0.5,0.3,0.2,0.48682099186996175,0.3,0.013237910447761193,0.800058902317723,1,high
188,Pompeii,,40.75,14.483329,55,83,0.557,13,10,188321148,https://pleiades.stoa.org/places/188321148,Forum of Pompeii,Foro|Foro civile|Foro etrusco|Foro maggiore|Forum|Porticus of Vibius Popidius|VII.8,40.74943545853224,14.48478436801491,,,precise,20.0,0.13773397929342632,0.11773397929342631,0.9941305936988051,0.4833333333333333,0.0,0.5,0.3,0.2,0.49706529684940254,0.145,0.0,0.6420652968494025,1,medium
189,Pudding Pan Rock,,51.349998,1.1,162,199,0.72,9,8,79439,https://pleiades.stoa.org/places/79439,*Durovernum,Duroaverus|Durovernum|Dvroavervs,51.279876,1.08386,-30.0,640.0,precise,10.0,7.877498683507529,7.867498683507529,0.6747757036796701,0.15,0.05802985074626865,0.5,0.3,0.2,0.33738785183983505,0.045,0.011605970149253731,0.3939938219890888,1,low
19,Barburgh Mill,,55.178001,-3.724208,140,160,0.5,0,0,655739578,https://pleiades.stoa.org/places/655739578,Barburgh Mill Roman fortlet,,55.1789963,-3.7263433,1700.0,2100.0,precise,20.0,0.17501557774873278,0.15501557774873279,0.9922791809452621,0.65,0.0,0.5,0.3,0.2,0.49613959047263106,0.195,0.0,0.6911395904726311,1,medium
190,Regensburg,,49.014999,12.09556,96,130,0.102,47,64,118929,https://pleiades.stoa.org/places/118929,Reginum/Castra Regina,Castra Regina|Regensburg|Reginum,49.019807400000005,12.098512249999999,-30.0,640.0,precise,20.0,0.5763883409960797,0.5563883409960797,0.972563979417105,1.0,0.02207462686567164,0.5,0.3,0.2,0.4862819897085525,0.3,0.004414925373134328,0.7906969150816868,1,high
191,Rheingönheim,,49.44514,8.41944,43,71,0.639,10,8,109123,https://pleiades.stoa.org/places/109123,Ludwigshafen,,49.4606205,8.441504,-30.0,640.0,precise,10.0,2.3466474434782065,2.3366474434782067,0.8897343248944276,0.15,0.043871641791044774,0.5,0.3,0.2,0.4448671624472138,0.045,0.008774328358208955,0.49864149080542275,1,low
192,Ribchester,Bremetennacum Veteranorum,53.799999,-2.533333,64,91,0.628,9,9,79352,https://pleiades.stoa.org/places/79352,Bremetennacum Veteranorum,Bremetennacum Veteranorum,53.81195539655067,-2.5322888184838943,-30.0,640.0,precise,10.0,1.3312592851014247,1.3212592851014247,0.9360719233647048,1.0,0.04217910447761194,0.5,0.3,0.2,0.4680359616823524,0.3,0.008435820895522387,0.7764717825778749,1,high
193,Rinschheim,,49.514442,9.39361,155,180,0.5,0,0,119043,https://pleiades.stoa.org/places/119043,Walldürn,,49.5802115,9.378551000000002,-30.0,300.0,precise,10.0,7.393503984040585,7.383503984040585,0.6913042838810839,0.15,0.03787878787878788,0.5,0.3,0.2,0.34565214194054195,0.045,0.007575757575757576,0.3982278995162995,1,low
194,Rißtissen,,48.27099,9.82587,65,95,0.5,0,0,118933,https://pleiades.stoa.org/places/118933,Risstissen,,48.2676055,9.832115,-30.0,300.0,precise,10.0,0.596054773781617,0.586054773781617,0.9711224236306151,0.15,0.045454545454545456,0.5,0.3,0.2,0.48556121181530754,0.045,0.009090909090909092,0.5396521209062166,1,medium
195,Roecliffe,,54.087303,-1.427329,57,83,0.785,6,3,209534779,https://pleiades.stoa.org/places/209534779,Roecliffe Fort,,54.092747,-1.409909,43.0,410.0,precise,25.0,1.2872986318429676,1.2622986318429676,0.9388355656219066,0.65,0.07486376021798366,0.5,0.3,0.2,0.4694177828109533,0.195,0.014972752043596733,0.67939053485455,1,medium
196,Rottenburg am Neckar,,48.466667,8.933333,73,103,0.582,12,11,118985,https://pleiades.stoa.org/places/118985,Sumelocenna,Rottenburg am Neckar|Samulocenis|Samvlocenis|Sumelocenna,48.4776425,8.937121000000001,-30.0,300.0,precise,10.0,1.251963011685925,1.241963011685925,0.9397906412636305,1.0,0.09347272727272728,0.5,0.3,0.2,0.46989532063181527,0.3,0.018694545454545457,0.7885898660863607,1,high
197,Rottweil,Arae Flaviae,48.16783,8.62719,70,98,0.26,24,28,118572,https://pleiades.stoa.org/places/118572,Arae Flaviae,Arae Flaviae|Aris Flavis|Rottweil,48.166686999999996,8.627925,-30.0,300.0,precise,10.0,0.1382919562029917,0.1282919562029917,0.9936059318025258,1.0,0.06303030303030303,0.5,0.3,0.2,0.4968029659012629,0.3,0.012606060606060607,0.8094090265073235,1,high
198,Rough Castle,,55.997688,-3.854519,133,157,0.428,13,15,89282,https://pleiades.stoa.org/places/89282,Rough Castle,,55.997854493575545,-3.8552533186970517,,,precise,20.0,0.04927248487499156,0.029272484874991556,0.9985374463318434,1.0,0.0,0.5,0.3,0.2,0.4992687231659217,0.3,0.0,0.7992687231659217,1,high
199,Rougham,,52.755577,0.69727,145,175,0.5,0,0,95991112,https://pleiades.stoa.org/places/95991112,Castle Acre Castle,,52.70325813911992,0.6913063434616022,,,precise,20.0,5.8314435268498,5.811443526849801,0.7478355513293128,0.15,0.0,0.5,0.3,0.2,0.3739177756646564,0.045,0.0,0.4189177756646564,1,low
2,Abergavenny,,51.833332,-3.016666,65,90,0.754,7,0,79484,https://pleiades.stoa.org/places/79484,‘Gobannio’,Abergavenny|Gobannio|Gobannium,51.8234205,-3.0194535,-30.0,640.0,precise,10.0,1.1186336982334872,1.1086336982334872,0.9460766527729351,1.0,0.03601194029850746,0.5,0.3,0.2,0.47303832638646753,0.3,0.0072023880597014926,0.780240714446169,1,high
20,Barochan Hill,,55.910342,-4.507793,40,80,0.5,0,0,89111,https://pleiades.stoa.org/places/89111,Barochan Hill,,55.884949,-4.537044,-30.0,300.0,precise,100.0,3.361279403413894,3.261279403413894,0.8495368416595508,1.0,0.06060606060606061,0.5,0.3,0.2,0.4247684208297754,0.3,0.012121212121212123,0.7368896329509874,1,medium
200,Saalburg,,50.271522,8.566659,90,120,0.241,29,31,109297,https://pleiades.stoa.org/places/109297,Saalburg Roman Fort,Kastell Saalburg|Römerkastell Saalburg|Saalburg|Saalburg castrum,50.2715322203374,8.566651620566516,,,precise,20.0,0.00125163035247623,0.0,1.0,1.0,0.0,0.5,0.3,0.2,0.5,0.3,0.0,0.8,1,high
201,Schirenhof,,48.786795,9.777356,154,187,0.375,19,27,458048480,https://pleiades.stoa.org/places/458048480,Kastellbad Schirenhof,,48.78584398278197,9.77532102273656,,,precise,20.0,0.18278436855388627,0.16278436855388628,0.9918938153268758,0.65,0.0,0.5,0.3,0.2,0.4959469076634379,0.195,0.0,0.6909469076634379,1,medium
202,South Shields,,54.99859,-1.4323,152,187,0.505,15,19,89104,https://pleiades.stoa.org/places/89104,Arbeia,Arbeia|South Shields,55.004406544631586,-1.4309707213819414,-30.0,640.0,precise,200.0,0.6523036186446549,0.4523036186446549,0.977638625379836,1.0,0.05200746268656716,0.5,0.3,0.2,0.488819312689918,0.3,0.010401492537313433,0.7992208052272315,1,high
203,Southwark,,51.5,-0.089161,65,89,0.152,30,33,404424015,https://pleiades.stoa.org/places/404424015,Southwark,Southwark,51.50423891938271,-0.09117030413103772,,,precise,20.0,0.49143754517982174,0.4714375451798217,0.9767037693560038,1.0,0.0,0.5,0.3,0.2,0.4883518846780019,0.3,0.0,0.7883518846780019,1,high
204,Stamford Bridge,,53.990833,-0.913611,65,90,0.5,0,0,129710517,https://pleiades.stoa.org/places/129710517,Buttercrambe Moor Roman camp,,54.0159448,-0.8809974,1700.0,2100.0,precise,20.0,3.512820639219874,3.492820639219874,0.8397584131016538,0.15,0.0,0.5,0.3,0.2,0.4198792065508269,0.045,0.0,0.4648792065508269,1,low
205,Stanwix,,54.900001,-2.933332,138,172,0.468,14,21,89307,https://pleiades.stoa.org/places/89307,Uxelodu(nu)m,Axeloduno|Petriana|Stanwix|Uxelodum|Uxelodunum,54.90505136750754,-2.9342740337938924,-30.0,640.0,precise,5.0,0.5647964305979676,0.5597964305979676,0.9723982642775361,1.0,0.048197014925373136,0.5,0.3,0.2,0.48619913213876803,0.3,0.009639402985074628,0.7958385351238426,1,high
206,Stockstadt,,49.976943,9.064167,68,98,0.634,8,11,118976,https://pleiades.stoa.org/places/118976,Stockstadt,,49.97895,9.065304,-30.0,300.0,precise,10.0,0.2375174826517099,0.2275174826517099,0.9886885864601487,1.0,0.09413939393939395,0.5,0.3,0.2,0.49434429323007434,0.3,0.018827878787878793,0.8131721720179532,1,high
207,Strageath,,56.341598,-3.782971,106,135,0.096,42,53,89293,https://pleiades.stoa.org/places/89293,Strageath,,56.34105,-3.782655,-30.0,300.0,precise,100.0,0.06397133596605956,0.0,1.0,1.0,0.03607272727272727,0.5,0.3,0.2,0.5,0.3,0.007214545454545454,0.8072145454545455,1,high
208,Straubing,,48.816669,12.56667,71,97,0.303,20,25,118968,https://pleiades.stoa.org/places/118968,Sorviodurum,Sorvioduro|Sorviodurum|Sorviodvro,48.8867769,12.5964322,-30.0,640.0,precise,20.0,8.094088069300835,8.074088069300835,0.6678415037291097,0.15,0.032108955223880596,0.5,0.3,0.2,0.33392075186455483,0.045,0.00642179104477612,0.38534254290933095,1,low
209,Sulz,,48.366661,8.3,67,91,0.62,6,9,118983,https://pleiades.stoa.org/places/118983,Sulz,,48.362353,8.631848,-30.0,300.0,precise,10.0,24.52053671549759,24.51053671549759,0.2936029790177942,1.0,0.07327272727272727,0.5,0.3,0.2,0.1468014895088971,0.3,0.014654545454545455,0.46145603496344256,1,low
21,Bearsden,,55.916667,-4.349999,138,168,0.846,4,4,89114,https://pleiades.stoa.org/places/89114,Bearsden,,55.919443,-4.333791,-30.0,300.0,precise,10.0,1.0560601764805375,1.0460601764805375,0.9490412553959365,1.0,0.09741818181818182,0.5,0.3,0.2,0.47452062769796827,0.3,0.019483636363636366,0.7940042640616046,1,high
210,Tác,Gorsium/Herculia,47.089804,18.420326,155,189,0.423,17,24,197287,https://pleiades.stoa.org/places/197287,Gorsium/Herculia,Gorsium|Herculia|Tác,47.089995558358346,18.42054530874704,-30.0,640.0,precise,20.0,0.027006897474929344,0.007006897474929344,0.9996497164898525,1.0,0.047350746268656714,0.5,0.3,0.2,0.49982485824492623,0.3,0.009470149253731344,0.8092950074986576,1,high
211,Templeborough,,53.416671,-1.383332,67,92,0.682,6,8,79710,https://pleiades.stoa.org/places/79710,Templebrough,Templeborough,53.41934336677471,-1.379914199502954,,,precise,5.0,0.37363148290472875,0.36863148290472875,0.9817372485039312,1.0,0.0,0.5,0.3,0.2,0.4908686242519656,0.3,0.0,0.7908686242519656,1,high
212,Theilenhofen,,49.083333,11.85,80,100,0.5,0,0,118711,https://pleiades.stoa.org/places/118711,Grossprüfening,,49.01289,12.046385,-30.0,640.0,precise,100.0,16.31573847244013,16.21573847244013,0.44450813460497623,0.15,0.014925373134328358,0.5,0.3,0.2,0.22225406730248812,0.045,0.0029850746268656717,0.2702391419293538,1,low
213,Topsham,,50.68333,-3.45,45,90,0.5,0,0,830662331,https://pleiades.stoa.org/places/830662331,"Park Field, Topsham",,50.6850732,-3.4658063,1700.0,2100.0,precise,20.0,1.1303381716725707,1.1103381716725707,0.9459960280822506,0.4833333333333333,0.0,0.5,0.3,0.2,0.4729980140411253,0.145,0.0,0.6179980140411253,1,medium
214,Torre Annunziata,,40.75,14.449999,58,85,0.629,11,7,723728396,https://pleiades.stoa.org/places/723728396,Torre di Mercurio,Torre di Mercurio|Tower XI,40.75275425496198,14.4828627058676,,,precise,20.0,2.785188423267308,2.765188423267308,0.8708727396194286,0.4,0.0,0.5,0.3,0.2,0.4354363698097143,0.12,0.0,0.5554363698097142,1,medium
215,Trier,Colonia Augusta Treverorum,49.75,6.633333,184,224,0.611,13,15,538561167,https://pleiades.stoa.org/places/538561167,Barbarathermen at Trier,Barbara Baths|Barbarathermen,49.7505043,6.6312383,,,precise,20.0,0.16060235296021982,0.14060235296021983,0.9929945358229647,0.4833333333333333,0.0,0.5,0.3,0.2,0.49649726791148235,0.145,0.0,0.6414972679114823,1,medium
216,Unknown,,0.0,0.0,70,100,0.5,0,0,354140,https://pleiades.stoa.org/places/354140,Murzuch,,25.917909,13.914447,-30.0,300.0,precise,10000.0,3245.5065775251715,3235.5065775251715,5.519088535742627e-71,0.15,0.045454545454545456,0.5,0.3,0.2,2.7595442678713134e-71,0.045,0.009090909090909092,0.05409090909090909,1,low
217,Unknown,,51.366664,1.133333,175,200,0.5,0,0,79654,https://pleiades.stoa.org/places/79654,Regulbium,Regulbium,51.37910288529436,1.1997133122776817,,,precise,20.0,4.810807038359383,4.790807038359383,0.7869895161648334,0.15,0.0,0.5,0.3,0.2,0.3934947580824167,0.045,0.0,0.43849475808241667,1,low
219,Urspring,,48.383338,9.716667,103,125,0.04,53,49,118542,https://pleiades.stoa.org/places/118542,Ad Lunam,Ad Lunam|Adlvnam|Castra Ad Lunam|Kastell Urspring|Urspring|Urspring (Kastell),48.54988794765647,9.900656022759128,,,precise,20.0,22.956231680460252,22.936231680460253,0.31764795028948994,1.0,0.0,0.5,0.3,0.2,0.15882397514474497,0.3,0.0,0.45882397514474493,1,low
22,Bendorf,,50.433333,7.566667,90,125,0.5,0,0,108804,https://pleiades.stoa.org/places/108804,Bendorf,,50.421092,7.5722295,-30.0,300.0,precise,10.0,1.4170260095687959,1.4070260095687959,0.9320663270384896,1.0,0.05303030303030303,0.5,0.3,0.2,0.4660331635192448,0.3,0.010606060606060607,0.7766392241253054,1,high
220,Valkenburg,Praetorium Agrippinae,52.18333,4.433332,47,74,0.367,17,21,99021,https://pleiades.stoa.org/places/99021,Praetorium Agrippinae,Praetorium Agrippinae|Pretoriu Agrippine|Pretoriv̄ Agrippine|Valkenburg,52.1798775,4.4330035,-30.0,640.0,precise,10.0,0.38455380257346633,0.3745538025734663,0.9814465834505218,1.0,0.0356044776119403,0.5,0.3,0.2,0.4907232917252609,0.3,0.00712089552238806,0.7978441872476489,1,high
221,Vaspuszta,,47.721389,17.908611,170,200,0.5,0,0,197086,https://pleiades.stoa.org/places/197086,Ad Statuas?,,47.736167,17.899833,-30.0,640.0,precise,10.0,1.7695456633443662,1.7595456633443662,0.9157816801463232,0.15,0.022388059701492536,0.5,0.3,0.2,0.4578908400731616,0.045,0.004477611940298508,0.5073684520134601,1,medium
222,Velsen,Flevum,52.46667,4.633333,26,55,0.606,8,12,99058,https://pleiades.stoa.org/places/99058,Velsen,,52.45268,4.6437735,-30.0,300.0,precise,10.0,1.7088989971765776,1.6988989971765776,0.9185628500241906,1.0,0.08998181818181819,0.5,0.3,0.2,0.4592814250120953,0.3,0.01799636363636364,0.7772777886484589,1,high
223,Verulamium,,51.75,-0.333333,88,119,0.132,45,43,79739,https://pleiades.stoa.org/places/79739,Verulamium,Verulamium,51.75202764213488,-0.35846817129313147,,,precise,5.0,1.7448991598904304,1.7398991598904305,0.9166817175357422,1.0,0.0,0.5,0.3,0.2,0.4583408587678711,0.3,0.0,0.758340858767871,1,high
224,Waddon Hill,,50.8104,-2.78625,33,63,0.8,6,3,723056584,https://pleiades.stoa.org/places/723056584,Waddon Hill,,50.81053079632086,-2.7846169048048246,,,precise,20.0,0.11566389426912793,0.09566389426912793,0.9952282265450864,1.0,0.0,0.5,0.3,0.2,0.4976141132725432,0.3,0.0,0.7976141132725432,1,high
225,Walheim,,49.014167,9.15111,73,113,0.105,60,67,119042,https://pleiades.stoa.org/places/119042,Walheim,,49.0106665,9.1544525,-30.0,300.0,precise,10.0,0.4592749017208298,0.4492749017208298,0.9777866861229086,1.0,0.05313636363636364,0.5,0.3,0.2,0.4888933430614543,0.3,0.010627272727272728,0.799520615788727,1,high
226,Walldürn,,49.57857,9.386719,163,195,0.482,11,21,119043,https://pleiades.stoa.org/places/119043,Walldürn,,49.5802115,9.378551000000002,-30.0,300.0,precise,10.0,0.6165362622165952,0.6065362622165952,0.9701284310442486,1.0,0.09347878787878787,0.5,0.3,0.2,0.4850642155221243,0.3,0.018695757575757574,0.8037599730978819,1,high
227,Wallsend,,54.988491,-1.523298,149,184,0.426,20,22,89288,https://pleiades.stoa.org/places/89288,Segedunum,Segedunum|Wallsend,54.98788734922942,-1.532320033290251,-30.0,640.0,precise,200.0,0.5794851735080688,0.3794851735080688,0.9812046194243322,1.0,0.048958208955223875,0.5,0.3,0.2,0.4906023097121661,0.3,0.009791641791044775,0.8003939515032109,1,high
228,Watercrook,Alone?/Alauna?,54.309425,-2.748589,74,98,0.565,8,11,89102,https://pleiades.stoa.org/places/89102,Watercrook Roman Fort and Settlement,Alauna|Alone|Watercrook Roman Fort,54.30979,-2.7485995,-30.0,300.0,precise,20.0,0.0405919197443164,0.020591919744316397,0.9989709338648725,0.65,0.07362121212121212,0.5,0.3,0.2,0.49948546693243623,0.195,0.014724242424242424,0.7092097093566787,1,medium
229,Weissenburg,,49.030803,10.9624,71,98,0.648,8,8,118600,https://pleiades.stoa.org/places/118600,Biriciana,Biriciana,49.03099305561315,10.962530145853535,-30.0,640.0,precise,20.0,0.023165543584514385,0.0031655435845143846,0.9998417353459462,0.15,0.041588059701492534,0.5,0.3,0.2,0.4999208676729731,0.045,0.008317611940298507,0.5532384796132715,1,medium
23,Benwell,,54.975463,-1.660947,153,185,0.452,17,19,89150,https://pleiades.stoa.org/places/89150,Condercum,Benwell|Condercum,54.977094446886554,-1.6642414975564166,-30.0,640.0,precise,200.0,0.27768964504322013,0.07768964504322012,0.9961230525895457,1.0,0.04587462686567164,0.5,0.3,0.2,0.49806152629477285,0.3,0.009174925373134328,0.8072364516679071,1,high
230,Welzheim,,48.883338,9.649999,151,189,0.489,14,23,119046,https://pleiades.stoa.org/places/119046,Welzheim,,48.8740905,9.637961,-30.0,300.0,precise,10.0,1.3536274202929475,1.3436274202929475,0.935025599415118,1.0,0.11113636363636363,0.5,0.3,0.2,0.467512799707559,0.3,0.022227272727272727,0.7897400724348318,1,high
231,Wiesbaden,Aquae Mattiacorum,50.083328,8.25,93,123,0.022,77,84,108750,https://pleiades.stoa.org/places/108750,Aquae Mattiacorum,Aquae Mattiacorum|Mattiaci|Wiesbaden,50.084205999999995,8.238584,-30.0,640.0,precise,10.0,0.8203639973156593,0.8103639973156593,0.9602916871725519,1.0,0.006271641791044775,0.5,0.3,0.2,0.48014584358627593,0.3,0.0012543283582089552,0.7814001719444849,1,high
232,Wilderspool,,53.369159,-2.586209,74,102,0.611,9,10,79763,https://pleiades.stoa.org/places/79763,Wilderspool,,53.372767,-2.603226,-30.0,640.0,precise,100.0,1.1981168234477082,1.0981168234477081,0.9465742720812156,1.0,0.042861194029850745,0.5,0.3,0.2,0.4732871360406078,0.3,0.00857223880597015,0.7818593748465779,1,high
233,Wimborne,,50.79,-2.014188,39,68,0.718,7,7,600065939,https://pleiades.stoa.org/places/600065939,Lake Farm Roman fort,,50.791469952121744,-2.001252755864943,43.0,410.0,precise,20.0,0.9238250353630378,0.9038250353630378,0.9558146631071102,0.15,0.06260490463215258,0.5,0.3,0.2,0.4779073315535551,0.045,0.012520980926430517,0.5354283124799856,1,medium
234,Wössingen,,49.016109,8.601388,150,175,0.5,0,0,119031,https://pleiades.stoa.org/places/119031,Vicus Senot(ensis),Vicus Senot|Vicus Senotensis,48.950261,8.571926,-30.0,300.0,precise,10.0,7.631105462735406,7.6211054627354065,0.6831401292785442,0.15,0.03787878787878788,0.5,0.3,0.2,0.3415700646392721,0.045,0.007575757575757576,0.39414582221502964,1,low
235,Wroxeter,,52.666671,-2.65,128,161,0.157,41,45,79741,https://pleiades.stoa.org/places/79741,Viroconium,Viroconium|Wroxeter,52.67448765162919,-2.6438183009307314,,,precise,20.0,0.963951445917226,0.943951445917226,0.9538989149728617,1.0,0.0,0.5,0.3,0.2,0.47694945748643086,0.3,0.0,0.7769494574864309,1,high
236,York,Eburacum,53.96667,-1.083333,64,92,0.28,22,28,89175,https://pleiades.stoa.org/places/89175,Eburacum,Eboracum|Eburacum|York,53.957672,-1.082304,-30.0,640.0,precise,1860.0,1.0027952446977533,0.0,1.0,1.0,0.03259701492537313,0.5,0.3,0.2,0.5,0.3,0.006519402985074627,0.8065194029850746,1,high
237,Zalalövő,Municipium Aelium Salla,46.848333,16.585281,140,170,0.5,0,0,197482,https://pleiades.stoa.org/places/197482,Sala,Sala,46.846569,16.585295,-30.0,640.0,precise,10.0,0.19615101121247377,0.18615101121247377,0.990735630613927,0.15,0.022388059701492536,0.5,0.3,0.2,0.4953678153069635,0.045,0.004477611940298508,0.544845427247262,1,medium
238,Zugmantel,,50.189704,8.203443,102,136,0.084,58,62,109472,https://pleiades.stoa.org/places/109472,Zugmantel,,50.1913545,8.202941,-30.0,300.0,precise,10.0,0.18697469930453986,0.17697469930453985,0.9911902998688642,1.0,0.039200000000000006,0.5,0.3,0.2,0.4955951499344321,0.3,0.007840000000000001,0.803435149934432,1,high
239,Zurzach,,47.349998,8.18,33,62,0.685,8,8,177557,https://pleiades.stoa.org/places/177557,Lenzburg,Lenzburg,47.3912525,8.185288,-30.0,640.0,precise,10.0,4.604549990232378,4.5945499902323785,0.7947501428003797,0.15,0.04600746268656717,0.5,0.3,0.2,0.39737507140018985,0.045,0.009201492537313434,0.4515765639375033,1,low
24,Berlingen,,50.816665,5.3,55,75,0.5,0,0,108806,https://pleiades.stoa.org/places/108806,Bergilers,,50.715456,5.328087,-30.0,640.0,precise,10.0,11.425988799459757,11.415988799459758,0.5650735157248133,0.15,0.014925373134328358,0.5,0.3,0.2,0.2825367578624067,0.045,0.0029850746268656717,0.3305218324892723,1,low
240,Zwammerdam,,52.099998,4.733333,103,138,0.086,55,66,99014,https://pleiades.stoa.org/places/99014,Nigrum Pullum,Nigrum Pullum|Zwammerdam,52.10502512746416,4.715887864474292,,,precise,20.0,1.3161379515809715,1.2961379515809714,0.9372484308452421,1.0,0.0,0.5,0.3,0.2,0.46862421542262106,0.3,0.0,0.768624215422621,1,high
25,Bewcastle,,55.066665,-2.683333,152,192,0.724,8,10,89181,https://pleiades.stoa.org/places/89181,Fanum Cocidi,Bewcastle|Fanococidi|Fanocodi|Fanum Cocidii,55.06406625143644,-2.682145604348282,,,precise,5.0,0.2986955045513027,0.2936955045513027,0.9854225202388303,1.0,0.0,0.5,0.3,0.2,0.49271126011941513,0.3,0.0,0.7927112601194151,1,high
26,Binchester,Vinovia,54.676732,-1.676772,69,95,0.716,6,6,89316,https://pleiades.stoa.org/places/89316,Vinovia,Binchester|Vinovia,54.676588743328104,-1.676632629034752,,,precise,20.0,0.01827665549330558,0.0,1.0,1.0,0.0,0.5,0.3,0.2,0.5,0.3,0.0,0.8,1,high
27,Birdoswald,Banna,54.991588,-2.60325,129,159,0.324,23,26,89109,https://pleiades.stoa.org/places/89109,Banna,Banna|Birdoswald,54.989464698218995,-2.6024173332862843,-30.0,640.0,precise,20.0,0.24200244567699047,0.22200244567699048,0.9889612567586308,1.0,0.03820298507462687,0.5,0.3,0.2,0.4944806283793154,0.3,0.007640597014925374,0.8021212253942407,1,high
28,Birrens,Blatobulgium,55.063598,-3.2228,134,166,0.413,18,21,89117,https://pleiades.stoa.org/places/89117,Blatobulgium,Birrens|Blatobulgium,55.06499648243147,-3.2243812490011896,,,precise,20.0,0.1852560414341198,0.16525604143411982,0.9917712410489491,1.0,0.0,0.5,0.3,0.2,0.49588562052447455,0.3,0.0,0.7958856205244745,1,high
29,Bishopton,,54.58333,-1.43333,138,170,0.639,4,14,89200,https://pleiades.stoa.org/places/89200,Holme House,,54.503845,-1.594089,-30.0,300.0,precise,100.0,13.624956191894402,13.524956191894402,0.5085214865614833,0.15,0.09681818181818182,0.5,0.3,0.2,0.25426074328074166,0.045,0.019363636363636364,0.318624379644378,1,low
3,Aislingen,,48.50648,10.45778,45,70,0.526,12,11,118549,https://pleiades.stoa.org/places/118549,Aislingen,,48.509004,10.459194,-30.0,300.0,precise,10.0,0.2993641958545937,0.28936419585459366,0.9856359518055383,1.0,0.07650909090909092,0.5,0.3,0.2,0.49281797590276916,0.3,0.015301818181818184,0.8081197940845873,1,high
30,Böbingen,,48.816669,9.916666,153,180,0.879,4,0,118601,https://pleiades.stoa.org/places/118601,Böbingen,,48.815795,9.9242565,-30.0,300.0,precise,10.0,0.5642043286646591,0.5542043286646591,0.9726701898023264,1.0,0.08257272727272727,0.5,0.3,0.2,0.4863350949011632,0.3,0.016514545454545455,0.8028496403557086,1,high
31,Bothwellhaugh,,55.796554,-4.024915,140,171,0.539,9,17,463220209,https://pleiades.stoa.org/places/463220209,Bothwellhaugh,,55.7974847,-4.0280558,43.0,410.0,precise,20.0,0.2219250647800263,0.2019250647800263,0.9899545428320002,1.0,0.08371389645776567,0.5,0.3,0.2,0.4949772714160001,0.3,0.016742779291553135,0.8117200507075533,1,high
32,Bowes,,54.515506,-2.010818,96,124,0.08,47,52,301646303,https://pleiades.stoa.org/places/301646303,Bowes Moor,,54.5080356,-2.1095,-30.0,300.0,precise,20.0,6.424121687003283,6.4041216870032835,0.7259994045402546,0.65,0.030787878787878788,0.5,0.3,0.2,0.3629997022701273,0.195,0.0061575757575757575,0.5641572780277031,1,medium
33,Bowness-on-Solway,,54.95389,-3.21187,145,185,0.463,22,22,89239,https://pleiades.stoa.org/places/89239,Maia,Bowness-on-Solway|Maia|Mais,54.95290333233697,-3.2151477624587503,-30.0,640.0,precise,200.0,0.23630733946963312,0.036307339469633104,0.9981862798084873,1.0,0.05804776119402985,0.5,0.3,0.2,0.49909313990424364,0.3,0.01160955223880597,0.8107026921430496,1,high
34,Brecon,Cicutio,51.95,-3.383332,66,93,0.502,13,14,79389,https://pleiades.stoa.org/places/79389,‘Cicutio’,Cicutio,51.956478622154016,-3.451705835402657,-30.0,640.0,precise,20.0,4.740714204843939,4.720714204843939,0.7897524711772207,1.0,0.04045970149253731,0.5,0.3,0.2,0.39487623558861035,0.3,0.008091940298507462,0.7029681758871178,1,medium
35,Bregenz,Brigantium,47.50311,9.7471,91,116,0.027,63,69,187325,https://pleiades.stoa.org/places/187325,Brigantium,BRIGANTIO|Brigantii|Brigantio|Brigantium,47.503041,9.747061,-30.0,640.0,precise,10.0,0.008212746021562335,0.0,1.0,1.0,0.006326865671641791,0.5,0.3,0.2,0.5,0.3,0.0012653731343283583,0.8012653731343284,1,high
36,Broomholm,,55.119319,-2.987909,60,80,0.5,0,0,752369279,https://pleiades.stoa.org/places/752369279,Broomholm,,55.12352,-2.97594,,,precise,5.0,0.8929833244568405,0.8879833244568405,0.9565720500037603,1.0,0.0,0.5,0.3,0.2,0.47828602500188017,0.3,0.0,0.7782860250018802,1,high
37,Brough-on-Humber,Petuaria,53.721889,-0.590419,63,91,0.676,7,9,79639,https://pleiades.stoa.org/places/79639,*Petuaria,Petuaria,53.687689,-0.59056,-30.0,640.0,precise,100.0,3.8028830687957464,3.7028830687957464,0.830984485945634,1.0,0.044394029850746274,0.5,0.3,0.2,0.415492242972817,0.3,0.008878805970149254,0.7243710489429662,1,medium
38,Brough-under-Stainmore,,54.653861,-2.717554,65,95,0.5,0,0,89127,https://pleiades.stoa.org/places/89127,Brocavum,BROCAVVM|Brocauum|Brocavum|Brougham,54.65315712112182,-2.7172354935019487,43.0,410.0,precise,20.0,0.08090525766365333,0.06090525766365333,0.9969593692266409,0.15,0.04087193460490463,0.5,0.3,0.2,0.49847968461332043,0.045,0.008174386920980927,0.5516540715343013,1,medium
39,Brougham,,54.654,-2.7191,168,200,0.897,4,0,89127,https://pleiades.stoa.org/places/89127,Brocavum,BROCAVVM|Brocauum|Brocavum|Brougham,54.65315712112182,-2.7172354935019487,43.0,410.0,precise,20.0,0.15221686886782873,0.13221686886782874,0.9934109601090438,1.0,0.0879891008174387,0.5,0.3,0.2,0.4967054800545219,0.3,0.01759782016348774,0.8143033002180097,1,high
4,Albertfalva,,47.439217,19.046778,133,166,0.307,26,30,197100,https://pleiades.stoa.org/places/197100,Albertfalva,,47.441047999999995,19.042775499999998,-30.0,300.0,precise,100.0,0.3634076249197831,0.2634076249197831,0.9869159687220652,1.0,0.0827969696969697,0.5,0.3,0.2,0.4934579843610326,0.3,0.01655939393939394,0.8100173783004265,1,high
40,Buch,,48.93333,10.149999,163,198,0.555,11,18,118614,https://pleiades.stoa.org/places/118614,Buch,,48.9087505,10.1395305,-30.0,300.0,precise,10.0,2.8381336808091078,2.828133680809108,0.8681361827661117,1.0,0.10763636363636364,0.5,0.3,0.2,0.43406809138305585,0.3,0.021527272727272728,0.7555953641103286,1,high
41,Budapest,,47.49835,19.04045,152,186,0.315,26,30,197181,https://pleiades.stoa.org/places/197181,Buda,,47.498372,19.040872,-30.0,300.0,precise,10.0,0.031796845788818764,0.021796845788818763,0.9989107513729812,0.15,0.08590909090909091,0.5,0.3,0.2,0.4994553756864906,0.045,0.017181818181818184,0.5616371938683088,1,medium
42,Burghöfe,Summuntorium,48.659999,10.84333,56,82,0.605,9,9,118986,https://pleiades.stoa.org/places/118986,Summuntorium,Summuntorium|Turenberc,48.6503594,10.8212809,-30.0,640.0,precise,20.0,1.9421698791942041,1.9221698791942041,0.9083654585568927,1.0,0.03973134328358209,0.5,0.3,0.2,0.45418272927844633,0.3,0.007946268656716418,0.7621289979351628,1,high
43,Burladingen,,48.283332,9.116666,62,94,0.335,21,28,118618,https://pleiades.stoa.org/places/118618,Burladingen,,48.289167,9.115248,-30.0,300.0,precise,10.0,0.6572514690544772,0.6472514690544772,0.9681554909557539,1.0,0.08222727272727273,0.5,0.3,0.2,0.48407774547787696,0.3,0.016445454545454548,0.8005232000233314,1,high
44,Butzbach,,50.439681,8.665183,78,110,0.276,25,32,108839,https://pleiades.stoa.org/places/108839,Butzbach,,50.437104,8.6735,-30.0,300.0,precise,10.0,0.6550214558455315,0.6450214558455315,0.9682634469508817,1.0,0.07443636363636365,0.5,0.3,0.2,0.48413172347544087,0.3,0.01488727272727273,0.7990189962027135,1,high
45,Cadder,,55.921009,-4.224601,143,177,0.62,10,12,89130,https://pleiades.stoa.org/places/89130,Cadder,,55.921359,-4.213507,-30.0,300.0,precise,10.0,0.6923202871609605,0.6823202871609605,0.9664593749693401,1.0,0.10521212121212122,0.5,0.3,0.2,0.48322968748467005,0.3,0.021042424242424244,0.8042721117270942,1,high
46,Caerhûn,Kanovium/Conovium,53.216667,-3.833333,52,82,0.612,13,8,79542,https://pleiades.stoa.org/places/79542,Kanovium/Conovium,Caerhun|Caerhûn|Canovium|Canubium|Conovium|Kanovium,53.21599915,-3.8341202,-30.0,640.0,precise,20.0,0.09089576347354088,0.07089576347354087,0.996461487170809,1.0,0.04658507462686567,0.5,0.3,0.2,0.4982307435854045,0.3,0.009317014925373134,0.8075477585107776,1,high
47,Caerleon,,51.60952,-2.95378,68,96,0.388,18,20,79532,https://pleiades.stoa.org/places/79532,Isca Silurum,Caerleon|Isca|Isca Augusta|Isca Silurum,51.610323,-2.955263,-30.0,640.0,precise,5.0,0.13586646353810017,0.13086646353810016,0.9934780377463254,1.0,0.03822089552238806,0.5,0.3,0.2,0.4967390188731627,0.3,0.007644179104477612,0.8043831979776402,1,high
48,Caernarfon,,53.137619,-4.265485,61,88,0.645,9,8,644273898,https://pleiades.stoa.org/places/644273898,Segontium: Roman Bath House,,53.1365316,-4.2657779,43.0,410.0,precise,20.0,0.12248193785167294,0.10248193785167294,0.994889008897231,0.15,0.07732970027247957,0.5,0.3,0.2,0.4974445044486155,0.045,0.015465940054495914,0.5579104445031113,1,medium
49,Caersws,,52.5167,-3.444389,63,87,0.463,14,12,79363,https://pleiades.stoa.org/places/79363,Caersws,,52.517244,-3.4313275,-30.0,640.0,precise,10.0,0.8858758772069104,0.8758758772069104,0.957151307601149,1.0,0.03455223880597015,0.5,0.3,0.2,0.4785756538005745,0.3,0.006910447761194031,0.7854861015617685,1,high
5,Alcester,,52.21667,-1.866667,139,176,0.853,4,5,79288,https://pleiades.stoa.org/places/79288,Alauna,Alauna|Alcester,52.245772,-1.885446,-30.0,640.0,precise,10000.0,3.4795628129601486,0.0,1.0,1.0,0.058564179104477615,0.5,0.3,0.2,0.5,0.3,0.011712835820895523,0.8117128358208956,1,high
50,Caerwent,,51.616661,-2.766666,118,149,0.133,42,47,122572946,https://pleiades.stoa.org/places/122572946,Walls of Caerwent (Venta Silurum),Walls of Caerwent (Venta Silurum),51.61109127702959,-2.7684531190638837,,,precise,20.0,0.6314990282557918,0.6114990282557918,0.9698877348868893,0.35,0.0,0.5,0.3,0.2,0.48494386744344464,0.105,0.0,0.5899438674434446,1,medium
51,Camelon,Colani(c)a?,56.008213,-3.82374,109,137,0.137,39,40,89148,https://pleiades.stoa.org/places/89148,Colani(c)a?,,56.008168892359684,-3.8249614810307304,,,precise,5.0,0.07609320605118762,0.07109320605118762,0.9964516500231382,1.0,0.0,0.5,0.3,0.2,0.4982258250115691,0.3,0.0,0.798225825011569,1,high
52,Camulodunum,,51.883335,0.899999,38,67,0.639,7,10,79393,https://pleiades.stoa.org/places/79393,Col. Camulodunum,Col. Camulodunum|Colchester,51.89007402644582,0.9010877626743472,-30.0,640.0,precise,10.0,0.7530630257664802,0.7430630257664802,0.9635285584084854,0.65,0.043871641791044774,0.5,0.3,0.2,0.4817642792042427,0.195,0.008774328358208955,0.6855386075624517,1,medium
53,Cap de Creus,,42.316665,3.316666,49,86,0.763,9,5,246583,https://pleiades.stoa.org/places/246583,Pyrenaei Pr.,Pyrenaei Pr.,42.3195491,3.3227308,1700.0,2100.0,precise,20.0,0.5928699786207605,0.5728699786207605,0.971762837212053,0.15,0.0,0.5,0.3,0.2,0.4858814186060265,0.045,0.0,0.5308814186060266,1,medium
54,Cap Drammont,,43.416667,6.849999,40,75,0.637,14,7,159311,https://pleiades.stoa.org/places/159311,Untitled,,43.435929,6.706223,-30.0,640.0,precise,10000.0,11.806737093278823,1.806737093278823,0.9136233751354988,0.15,0.053241791044776124,0.5,0.3,0.2,0.4568116875677494,0.045,0.010648358208955225,0.5124600457767047,1,medium
55,Cappuck,,55.480972,-2.476309,140,175,0.424,21,21,104728999,https://pleiades.stoa.org/places/104728999,Cappuck,,55.483865427843966,-2.483926232898142,-30.0,300.0,precise,20.0,0.5778188091715569,0.5578188091715569,0.9724944208136104,1.0,0.09893333333333333,0.5,0.3,0.2,0.4862472104068052,0.3,0.019786666666666668,0.8060338770734718,1,high
56,Cardean,,56.600624,-3.158179,73,98,0.819,4,4,89297,https://pleiades.stoa.org/places/89297,Tameia?,Cardean|Tameia,56.625325,-3.14319,-30.0,300.0,precise,10000.0,2.8957176065606514,0.0,1.0,1.0,0.0819,0.5,0.3,0.2,0.5,0.3,0.016380000000000002,0.81638,1,high
57,Cardiff,,51.483333,-3.183333,53,83,0.668,10,7,79706,https://pleiades.stoa.org/places/79706,Tamion?,Caerdydd|Cardiff|Tamion,51.4817495,-3.1809505,-30.0,640.0,precise,100.0,0.24129243419653454,0.14129243419653453,0.9929602740692062,1.0,0.04685970149253732,0.5,0.3,0.2,0.4964801370346031,0.3,0.009371940298507464,0.8058520773331106,1,high
58,Carlisle,,54.891,-2.9439,64,91,0.501,13,14,89234,https://pleiades.stoa.org/places/89234,Luguvalium,Luguvalium,54.896035,-2.9376685,-30.0,640.0,precise,10.0,0.6872025855762931,0.6772025855762931,0.9667067091462932,0.15,0.04037910447761194,0.5,0.3,0.2,0.4833533545731466,0.045,0.008075820895522388,0.536429175468669,1,medium
59,Carmarthen,,51.859165,-4.311666,64,91,0.559,10,12,780447856,https://pleiades.stoa.org/places/780447856,Carmarthen,,51.856364,-4.3036461,43.0,410.0,precise,5.0,0.6327377099379479,0.6277377099379479,0.9691005695835904,1.0,0.07463487738419619,0.5,0.3,0.2,0.4845502847917952,0.3,0.014926975476839239,0.7994772602686343,1,high
6,Ardoch,,56.267341,-3.876161,138,165,0.75,4,7,89096,https://pleiades.stoa.org/places/89096,Alauna,Alauna|Ardoch|Litana,56.267777921029705,-3.875516376749088,,,precise,20.0,0.06280720425650159,0.042807204256501585,0.9978619287247537,1.0,0.0,0.5,0.3,0.2,0.4989309643623768,0.3,0.0,0.7989309643623768,1,high
60,Carnuntum,Bad Deutsch Altenburg,48.133335,16.899999,163,196,0.17,40,44,128376,https://pleiades.stoa.org/places/128376,Carnuntum,Carnunto|Carnuntum|Carnvnto,48.113346,16.867891,-30.0,640.0,precise,10.0,3.258859927631017,3.2488599276310173,0.8500645455993336,1.0,0.029686567164179105,0.5,0.3,0.2,0.4250322727996668,0.3,0.0059373134328358215,0.7309695862325025,1,medium
61,Carrawburgh,,55.035053,-2.222198,143,179,0.279,31,35,89128,https://pleiades.stoa.org/places/89128,*Brocolitia,Brocolitia|Brocolitia Roman fort|Carrawburgh,55.0345957013026,-2.222179461541358,-30.0,640.0,precise,5.0,0.05086308592638662,0.045863085926386625,0.9977094729733654,1.0,0.04247462686567164,0.5,0.3,0.2,0.4988547364866827,0.3,0.008494925373134328,0.807349661859817,1,high
62,Carriden,,56.010086,-3.563143,135,180,0.5,0,0,89309,https://pleiades.stoa.org/places/89309,Velunia(te),Velunia|Veluniate,56.010181567338996,-3.5640938560953033,,,precise,5.0,0.06005589464020332,0.05505589464020332,0.9972509907330753,0.15,0.0,0.5,0.3,0.2,0.49862549536653766,0.045,0.0,0.5436254953665377,1,medium
63,Carvoran,Magnis,54.9849,-2.5244,63,88,0.819,4,4,89238,https://pleiades.stoa.org/places/89238,Magnis,Carvoran|Magna|Magnis,54.98482930525684,-2.524275984279248,,,precise,20.0,0.011153590849014725,0.0,1.0,1.0,0.0,0.5,0.3,0.2,0.5,0.3,0.0,0.8,1,high
64,Carzield,,55.112419,-3.630598,141,168,0.56,11,10,109408874,https://pleiades.stoa.org/places/109408874,Carzield,,55.11979,-3.61866,-30.0,300.0,precise,5.0,1.1172020451138076,1.1122020451138077,0.9459078713465264,1.0,0.08145454545454546,0.5,0.3,0.2,0.4729539356732632,0.3,0.016290909090909092,0.7892448447641723,1,high
65,Castell Collen,,52.247577,-3.391672,60,90,0.5,0,0,79378,https://pleiades.stoa.org/places/79378,Castell Collen,,52.25582983216876,-3.3841679292132127,-30.0,640.0,precise,20.0,1.0502701899556472,1.0302701899556472,0.949790818678569,1.0,0.022388059701492536,0.5,0.3,0.2,0.4748954093392845,0.3,0.004477611940298508,0.779373021279583,1,high
66,Castlecary,,55.983333,-3.95,135,170,0.32,27,28,89138,https://pleiades.stoa.org/places/89138,Castlecary,,55.98230092221129,-3.940533989296284,,,precise,20.0,0.5999322757441307,0.5799322757441306,0.971419753895034,1.0,0.0,0.5,0.3,0.2,0.485709876947517,0.3,0.0,0.785709876947517,1,high
67,Castledykes,,55.983333,-3.95,121,153,0.179,38,39,89138,https://pleiades.stoa.org/places/89138,Castlecary,,55.98230092221129,-3.940533989296284,,,precise,20.0,0.5999322757441307,0.5799322757441306,0.971419753895034,0.15,0.0,0.5,0.3,0.2,0.485709876947517,0.045,0.0,0.530709876947517,1,medium
68,Castleford,,53.71667,-1.35,94,123,0.152,37,38,337037056,https://pleiades.stoa.org/places/337037056,"Roman Bath House, Castleford",,53.7275533,-1.355033,43.0,410.0,precise,20.0,1.254657611678705,1.234657611678705,0.9401339812935933,0.4,0.04307356948228883,0.5,0.3,0.2,0.47006699064679663,0.12,0.008614713896457767,0.5986817045432543,1,medium
69,Castleshaw,,53.583332,-2.003055,80,110,0.5,0,0,79656,https://pleiades.stoa.org/places/79656,Rigodounon?,Castleshaw Roman Fort|Rigodounon|Ῥιγόδουνον,53.58322772685001,-2.0032045483526626,-30.0,300.0,precise,100.0,0.01522794905471467,0.0,1.0,0.4833333333333333,0.045454545454545456,0.5,0.3,0.2,0.5,0.145,0.009090909090909092,0.6540909090909091,1,medium
7,Arnsburg,,50.487393,8.784294,72,100,0.662,8,9,118575,https://pleiades.stoa.org/places/118575,Arnsburg,,50.48771489393273,8.784437503705496,-30.0,300.0,precise,20.0,0.037205025968531716,0.017205025968531715,0.9991401186116422,1.0,0.09027272727272727,0.5,0.3,0.2,0.4995700593058211,0.3,0.018054545454545455,0.8176246047603665,1,high
70,Catterick,,54.37542,-1.63328,115,148,0.126,46,51,89143,https://pleiades.stoa.org/places/89143,Cataractonium,Cataractonium|Catterick,54.38719539682952,-1.6547101467230965,,,precise,100.0,1.9079823729909,1.8079823729909,0.9135664910737546,1.0,0.0,0.5,0.3,0.2,0.4567832455368773,0.3,0.0,0.7567832455368773,1,high
71,Catterick North,,54.385871,-1.661204,70,100,0.5,0,0,89143,https://pleiades.stoa.org/places/89143,Cataractonium,Cataractonium|Catterick,54.38719539682952,-1.6547101467230965,,,precise,100.0,0.4455230755898754,0.3455230755898754,0.9828722232748777,0.65,0.0,0.5,0.3,0.2,0.49143611163743883,0.195,0.0,0.6864361116374389,1,medium
72,Charterhouse-on-Mendip,,51.298175,-2.716521,65,90,0.5,0,0,79534,https://pleiades.stoa.org/places/79534,Ischalis?,Charterhouse Roman Town|Ischalis,51.30042082353328,-2.714099249062613,43.0,410.0,precise,20.0,0.30118354058559976,0.28118354058559974,0.9860391916661958,0.35,0.0340599455040872,0.5,0.3,0.2,0.4930195958330979,0.105,0.0068119891008174395,0.6048315849339154,1,medium
73,Chelmsford,,51.733329,0.483333,60,85,0.5,0,0,79364,https://pleiades.stoa.org/places/79364,Caesaromagus,Caesaromagus,51.735893,0.469629,-30.0,640.0,precise,10.0,0.9858337785924628,0.9758337785924628,0.9523795002294965,0.15,0.018656716417910446,0.5,0.3,0.2,0.47618975011474823,0.045,0.0037313432835820895,0.5249210933983303,1,medium
74,Chester,Deva,53.191469,-2.893943,65,92,0.455,15,15,79420,https://pleiades.stoa.org/places/79420,Deva,Deva,53.1914685,-2.8939424999999996,-30.0,640.0,precise,100.0,6.481281008742901e-05,0.0,1.0,1.0,0.0387089552238806,0.5,0.3,0.2,0.5,0.3,0.00774179104477612,0.8077417910447762,1,high
75,Chester-le-Street,Cocangis,54.849998,-1.566666,154,194,0.751,5,10,89146,https://pleiades.stoa.org/places/89146,‘Cocanges’/‘Concangios’,Chester-le-Street|Cocanges|Concangios,54.855844,-1.571925,-30.0,640.0,precise,5.0,0.7320437012161688,0.7270437012161688,0.964300621399932,1.0,0.061649253731343286,0.5,0.3,0.2,0.482150310699966,0.3,0.012329850746268658,0.7944801614462347,1,high
76,Chesterfield,,53.25,-1.416666,65,90,0.5,0,0,79593,https://pleiades.stoa.org/places/79593,Mansfield Woodhouse,,53.169039,-1.18143,-30.0,640.0,precise,10.0,18.06774402346808,18.05774402346808,0.405397504280486,0.15,0.018656716417910446,0.5,0.3,0.2,0.202698752140243,0.045,0.0037313432835820895,0.2514300954238251,1,low
77,Chesterholm-Vindolanda,,54.991588,-2.359504,116,148,0.13,44,49,89313,https://pleiades.stoa.org/places/89313,Vindolanda,Vindolanda,54.99130261868098,-2.360222233052599,43.0,410.0,precise,20.0,0.055733831711738166,0.03573383171173816,0.9982149035976492,0.65,0.04427792915531335,0.5,0.3,0.2,0.4991074517988246,0.195,0.008855585831062671,0.7029630376298873,1,medium
78,Chesters,,55.016666,-2.15,152,188,0.436,19,22,89144,https://pleiades.stoa.org/places/89144,Cilurnum,Chesters|Chesters Roman fort|Cilurnum,55.025894330381306,-2.139749505632937,-30.0,640.0,precise,20.0,1.2165232344788228,1.1965232344788228,0.9419282625379876,1.0,0.05010746268656716,0.5,0.3,0.2,0.4709641312689938,0.3,0.010021492537313433,0.7809856238063072,1,high
79,Cirencester,Korinion/Cironium,51.733329,-1.983332,54,82,0.179,33,35,79549,https://pleiades.stoa.org/places/79549,Korinion/Cironium,Cirencester|Cironium|Corinium Dobunnorum|Korinion,51.711380000000005,-1.971806,-30.0,640.0,precise,100.0,2.5665087181689583,2.4665087181689582,0.8839759382329413,1.0,0.025647761194029853,0.5,0.3,0.2,0.44198796911647065,0.3,0.0051295522388059706,0.7471175213552765,1,medium
8,Arras,Nemetacum,50.283332,2.783333,150,185,0.5,0,0,109194,https://pleiades.stoa.org/places/109194,Nemetacum,Arras|Nemetacum|Nemetocenna,50.2927655,2.778586,-330.0,640.0,precise,10.0,1.1018415056147843,1.0918415056147843,0.9468713214012399,1.0,0.01804123711340206,0.5,0.3,0.2,0.47343566070061993,0.3,0.003608247422680412,0.7770439081233003,1,high
80,Colchester,,51.883338,0.899999,52,81,0.258,27,28,79393,https://pleiades.stoa.org/places/79393,Col. Camulodunum,Col. Camulodunum|Colchester,51.89007402644582,0.9010877626743472,-30.0,640.0,precise,10.0,0.752731087281795,0.742731087281795,0.9635445501516733,1.0,0.032346268656716415,0.5,0.3,0.2,0.48177227507583664,0.3,0.006469253731343283,0.78824152880718,1,high
81,Corbridge,Coriosopitum/Coria,54.97365,-2.01798,118,153,0.171,40,46,89152,https://pleiades.stoa.org/places/89152,*Coriosopitum/Coria,Corbridge|Coria|Coriosopitum|Corstopitum,54.978189383176726,-2.029291531137658,-30.0,640.0,precise,20.0,0.8808380094313234,0.8608380094313234,0.9578712539689348,1.0,0.030882089552238808,0.5,0.3,0.2,0.4789356269844674,0.3,0.006176417910447762,0.7851120448949152,1,high
82,Cramond,,55.966667,-3.299999,138,171,0.351,24,26,89153,https://pleiades.stoa.org/places/89153,Cramond,,55.97766152084004,-3.3001359571886586,,,precise,5.0,1.222566329384922,1.2175663293849222,0.9409377294352527,1.0,0.0,0.5,0.3,0.2,0.47046886471762633,0.3,0.0,0.7704688647176263,1,high
83,Dol-y-Gaer,,0.0,0.0,70,100,0.5,0,0,354140,https://pleiades.stoa.org/places/354140,Murzuch,,25.917909,13.914447,-30.0,300.0,precise,10000.0,3245.5065775251715,3235.5065775251715,5.519088535742627e-71,0.15,0.045454545454545456,0.5,0.3,0.2,2.7595442678713134e-71,0.045,0.009090909090909092,0.05409090909090909,1,low
84,Doncaster,,53.533332,-1.116666,69,101,0.559,12,14,79412,https://pleiades.stoa.org/places/79412,Danum?,,53.525415981432,-1.1351028777868477,,,precise,5.0,1.5032517263107192,1.4982517263107193,0.9278245873495483,0.15,0.0,0.5,0.3,0.2,0.46391229367477416,0.045,0.0,0.5089122936747742,1,medium
85,Donnstetten,,48.51667,9.566666,100,128,0.097,51,43,118632,https://pleiades.stoa.org/places/118632,Clarenna,Clarenna|Donnstetten (Kastel)|Kastell Donnstetten|Kastell Donstetten,48.5098565,9.5694729,-30.0,300.0,precise,20.0,0.7853335518928221,0.765333551892822,0.9624562411493489,0.65,0.03586060606060606,0.5,0.3,0.2,0.48122812057467446,0.195,0.007172121212121212,0.6834002417867957,1,medium
86,Dormagen,,51.099998,6.833333,68,88,0.779,4,4,108941,https://pleiades.stoa.org/places/108941,Durnomagus,Durnomagus,51.093062,6.842095,-30.0,640.0,precise,10.0,0.9844814579078233,0.9744814579078233,0.9524438985315402,0.15,0.03255522388059702,0.5,0.3,0.2,0.4762219492657701,0.045,0.0065110447761194045,0.5277329940418896,1,medium
87,Duntocher,,55.933334,-4.416666,143,180,0.754,11,0,89171,https://pleiades.stoa.org/places/89171,Duntocher,,55.92350244580256,-4.409929181382963,,,precise,20.0,1.1710046244809111,1.1510046244809111,0.9440744671792927,1.0,0.0,0.5,0.3,0.2,0.47203723358964633,0.3,0.0,0.7720372335896464,1,high
88,Ebchester,,54.883335,-1.833333,95,122,0.037,56,68,89314,https://pleiades.stoa.org/places/89314,Vindomora,Ebchester|Vindomora,54.89416350113713,-1.840140535406297,-30.0,640.0,precise,200.0,1.2803729912713082,1.0803729912713083,0.9474144374712645,1.0,0.008338805970149254,0.5,0.3,0.2,0.47370721873563226,0.3,0.0016677611940298508,0.7753749799296621,1,high
89,Echzell,,50.393087,8.883176,83,113,0.224,30,34,118657,https://pleiades.stoa.org/places/118657,Echzell,Echzell,50.391956,8.8840215,-30.0,300.0,precise,10.0,0.13931421746358655,0.12931421746358654,0.993555146857805,1.0,0.0638060606060606,0.5,0.3,0.2,0.4967775734289025,0.3,0.012761212121212121,0.8095387855501146,1,high
9,Aulnay-de-Saintonge,,46.016666,-0.349999,21,50,0.724,6,7,138200,https://pleiades.stoa.org/places/138200,Au(n)edonnacum,Auedonnacum|Aunedonnacum,46.020807,-0.346927,-30.0,640.0,precise,10.0,0.5179675512773956,0.5079675512773956,0.9749214478244099,0.15,0.04538507462686567,0.5,0.3,0.2,0.48746072391220496,0.045,0.009077014925373134,0.5415377388375782,1,medium
90,Eining,,48.849998,11.76667,84,113,0.17,37,36,118539,https://pleiades.stoa.org/places/118539,Abusina,Abusina|Arusena|Arvsena|Eining,48.85003819095376,11.77096748980968,-30.0,640.0,precise,20.0,0.3144789209144621,0.2944789209144621,0.9853839211884643,1.0,0.02588059701492537,0.5,0.3,0.2,0.49269196059423215,0.3,0.005176119402985075,0.7978680799972173,1,high
91,Elginhaugh,,55.893131,-3.080559,64,91,0.738,5,6,217976835,https://pleiades.stoa.org/places/217976835,Elginhaugh Roman fort,,55.89435926624869,-3.0856418209448813,,,precise,20.0,0.34509253595305345,0.32509253595305343,0.9838767667674413,0.4833333333333333,0.0,0.5,0.3,0.2,0.49193838338372065,0.145,0.0,0.6369383833837207,1,medium
92,Elslack,,53.933334,-2.116666,160,200,0.5,0,0,89260,https://pleiades.stoa.org/places/89260,Elslack Roman Fort,Burwen Castle|Elslack|Olenacum|Olikana,53.940900813053645,-2.1151925960689013,43.0,410.0,precise,20.0,0.846901914908704,0.826901914908704,0.959497954145676,1.0,0.05449591280653951,0.5,0.3,0.2,0.479748977072838,0.3,0.010899182561307903,0.7906481596341459,1,high
93,Eschenz,,47.650001,8.866666,155,195,0.576,10,19,187573,https://pleiades.stoa.org/places/187573,Tasg(a)etium,Stein am Rhein|Tasgaetium|Tasgetium,47.6559494,8.8588308,-30.0,640.0,precise,20.0,0.8842640523464116,0.8642640523464116,0.9577071826210617,0.15,0.05931940298507462,0.5,0.3,0.2,0.47885359131053085,0.045,0.011863880597014924,0.5357174719075458,1,medium
94,Faimingen,,48.566669,10.399999,72,100,0.65,7,10,118904,https://pleiades.stoa.org/places/118904,Phoebiana,Phoebiana,48.561582,10.409149,-30.0,300.0,precise,10.0,0.8793852552551533,0.8693852552551533,0.9574619833748107,0.15,0.08863636363636364,0.5,0.3,0.2,0.47873099168740535,0.045,0.017727272727272727,0.541458264414678,1,medium
95,Falkirk,,56.0,-3.75,110,145,0.5,0,0,89182,https://pleiades.stoa.org/places/89182,Falkirk,,55.999104,-3.784948,-30.0,300.0,precise,10.0,2.1753570550099233,2.1653570550099235,0.897387196607124,1.0,0.05303030303030303,0.5,0.3,0.2,0.448693598303562,0.3,0.010606060606060607,0.7592996589096226,1,high
96,Feldberg,,50.227149,8.444662,80,105,0.5,0,0,108979,https://pleiades.stoa.org/places/108979,Feldberg,,50.227142905697136,8.444725208845181,-30.0,300.0,precise,20.0,0.004547237911968284,0.0,1.0,1.0,0.03787878787878788,0.5,0.3,0.2,0.5,0.3,0.007575757575757576,0.8075757575757576,1,high
97,Fishbourne,,50.839269,-0.810943,48,77,0.595,13,8,79466,https://pleiades.stoa.org/places/79466,Fishbourne,Fishbourne,50.83676530482308,-0.8098534183831175,-30.0,300.0,precise,20.0,0.2887210481194829,0.2687210481194829,0.9866538084376025,1.0,0.09015151515151515,0.5,0.3,0.2,0.49332690421880127,0.3,0.018030303030303032,0.8113572072491043,1,high
98,Fishbourne,,50.839269,-0.810943,45,75,0.601,12,9,79466,https://pleiades.stoa.org/places/79466,Fishbourne,Fishbourne,50.83676530482308,-0.8098534183831175,-30.0,300.0,precise,20.0,0.2887210481194829,0.2687210481194829,0.9866538084376025,1.0,0.09288181818181818,0.5,0.3,0.2,0.49332690421880127,0.3,0.018576363636363637,0.8119032678551649,1,high
99,Friedberg,,50.341669,8.753502,64,91,0.438,15,16,118681,https://pleiades.stoa.org/places/118681,Friedberg,,50.336719,8.753676,-30.0,300.0,precise,10.0,0.5505541517275762,0.5405541517275761,0.9733342724072858,1.0,0.07698181818181818,0.5,0.3,0.2,0.4866671362036429,0.3,0.015396363636363637,0.8020634998400065,1,high
